country_code,region_code,name_slug,name,name_normalized,osm_relation_id,wikidata_id,is_capital,lon,lat
BR,RO,alta-floresta-doeste,Alta Floresta d'Oeste,Alta Floresta d'Oeste,325842,Q1761456,,-61.9998239,-11.9355403
BR,RO,ariquemes,Ariquemes,Ariquemes,325888,Q1646975,,-63.03326928,-9.908462867
BR,RO,cabixi,Cabixi,Cabixi,325882,Q940433,,-60.54431358,-13.49976346
BR,RO,cacoal,Cacoal,Cacoal,325872,Q1761637,,-61.44294421,-11.43386503
BR,RO,cerejeiras,Cerejeiras,Cerejeiras,325883,Q1803210,,-60.81842616,-13.19503303
BR,RO,colorado-do-oeste,Colorado do Oeste,Colorado do Oeste,325860,Q1785819,,-60.55506746,-13.13056384
BR,RO,corumbiara,Corumbiara,Corumbiara,325874,Q927349,,-60.94870117,-12.99752024
BR,RO,costa-marques,Costa Marques,Costa Marques,325844,Q656758,,-64.23165394,-12.43601388
BR,RO,espigao-doeste,Espigão d'Oeste,Espigao d'Oeste,325845,Q616498,,-61.02017311,-11.52855463
BR,RO,guajara-mirim,Guajará-Mirim,Guajara-Mirim,325856,Q983810,,-65.32395182,-10.77388374
BR,RO,jaru,Jaru,Jaru,325864,Q988755,,-62.47623071,-10.43594877
BR,RO,ji-parana,Ji-Paraná,Ji-Parana,325879,Q983815,,-61.94509458,-10.88205132
BR,RO,machadinho-doeste,Machadinho d'Oeste,Machadinho d'Oeste,325881,Q1786440,,-61.99959257,-9.42556248
BR,RO,nova-brasilandia-doeste,Nova Brasilândia d'Oeste,Nova Brasilandia d'Oeste,325857,Q2014329,,-62.30823016,-11.72132541
BR,RO,ouro-preto-do-oeste,Ouro Preto do Oeste,Ouro Preto do Oeste,325854,Q1803223,,-62.26105519,-10.7235739
BR,RO,pimenta-bueno,Pimenta Bueno,Pimenta Bueno,325843,Q1803175,,-61.18366567,-11.67753699
BR,RO,porto-velho,Porto Velho,Porto Velho,325855,Q172512,TRUE,-63.83144565,-8.76889179
BR,RO,presidente-medici,Presidente Médici,Presidente Medici,325892,Q1871362,,-61.90943868,-11.17320502
BR,RO,rio-crespo,Rio Crespo,Rio Crespo,325848,Q1786495,,-62.90001037,-9.70553671
BR,RO,rolim-de-moura,Rolim de Moura,Rolim de Moura,325876,Q1784242,,-61.78578094,-11.72225891
BR,RO,santa-luzia-doeste,Santa Luzia d'Oeste,Santa Luzia d'Oeste,325862,Q1802100,,-61.77330546,-11.90842333
BR,RO,vilhena,Vilhena,Vilhena,325887,Q1749958,,-60.13858387,-12.74137347
BR,RO,sao-miguel-do-guapore,São Miguel do Guaporé,Sao Miguel do Guapore,325863,Q1807456,,-62.72006348,-11.69948974
BR,RO,nova-mamore,Nova Mamoré,Nova Mamore,325849,Q993507,,-65.32914902,-10.41177129
BR,RO,alvorada-doeste,Alvorada d'Oeste,Alvorada d'Oeste,325853,Q1786028,,-62.27727487,-11.34413002
BR,RO,alto-alegre-dos-parecis,Alto Alegre dos Parecis,Alto Alegre dos Parecis,325858,Q1802050,,-61.85307717,-12.13177722
BR,RO,alto-paraiso,Alto Paraíso,Alto Paraiso,325870,Q607036,,-63.31762943,-9.716666738
BR,RO,buritis,Buritis,Buritis,325859,Q1921800,,-63.82967879,-10.20980541
BR,RO,novo-horizonte-do-oeste,Novo Horizonte do Oeste,Novo Horizonte do Oeste,325865,Q2013150,,-61.99438766,-11.70974292
BR,RO,cacaulandia,Cacaulândia,Cacaulandia,325847,Q1750177,,-62.90318993,-10.33887284
BR,RO,campo-novo-de-rondonia,Campo Novo de Rondônia,Campo Novo de Rondonia,325871,Q2089179,,-63.62499143,-10.56841647
BR,RO,candeias-do-jamari,Candeias do Jamari,Candeias do Jamari,325890,Q2078405,,-63.70002007,-8.785020704
BR,RO,castanheiras,Castanheiras,Castanheiras,325891,Q1785860,,-61.9491612,-11.42684223
BR,RO,chupinguaia,Chupinguaia,Chupinguaia,325852,Q735454,,-60.90184775,-12.55684076
BR,RO,cujubim,Cujubim,Cujubim,325880,Q1803135,,-62.58717453,-9.378193399
BR,RO,governador-jorge-teixeira,Governador Jorge Teixeira,Governador Jorge Teixeira,325894,Q964725,,-62.74045764,-10.61207177
BR,RO,itapua-do-oeste,Itapuã do Oeste,Itapua do Oeste,325893,Q1802170,,-63.18233702,-9.191871675
BR,RO,ministro-andreazza,Ministro Andreazza,Ministro Andreazza,325889,Q775204,,-61.51892193,-11.19623798
BR,RO,mirante-da-serra,Mirante da Serra,Mirante da Serra,325875,Q2079711,,-62.6694271,-11.04560929
BR,RO,monte-negro,Monte Negro,Monte Negro,325873,Q2014320,,-63.29555917,-10.26309776
BR,RO,nova-uniao,Nova União,Nova Uniao,325846,Q2364475,,-62.5550894,-10.91553204
BR,RO,parecis,Parecis,Parecis,325850,Q1803114,,-61.59799797,-12.17982705
BR,RO,pimenteiras-do-oeste,Pimenteiras do Oeste,Pimenteiras do Oeste,325885,Q1803105,,-61.044379,-13.476562
BR,RO,primavera-de-rondonia,Primavera de Rondônia,Primavera de Rondonia,325878,Q1802123,,-61.31654624,-11.82570695
BR,RO,sao-felipe-doeste,São Felipe d'Oeste,Sao Felipe d'Oeste,325877,Q1803269,,-61.51250811,-11.91438935
BR,RO,sao-francisco-do-guapore,São Francisco do Guaporé,Sao Francisco do Guapore,325851,Q1802095,,-63.57086471,-12.06379841
BR,RO,seringueiras,Seringueiras,Seringueiras,325867,Q727950,,-63.038761,-11.76711664
BR,RO,teixeiropolis,Teixeirópolis,Teixeiropolis,325861,Q1802088,,-62.25592225,-10.93216929
BR,RO,theobroma,Theobroma,Theobroma,325886,Q647208,,-62.34514553,-10.24873055
BR,RO,urupa,Urupá,Urupa,325884,Q2089326,,-62.37063245,-11.12854528
BR,RO,vale-do-anari,Vale do Anari,Vale do Anari,325868,Q1807445,,-62.17682344,-9.851392708
BR,RO,vale-do-paraiso,Vale do Paraíso,Vale do Paraiso,325869,Q2013187,,-62.13439036,-10.43105268
BR,AC,acrelandia,Acrelândia,Acrelandia,326273,Q953086,,-67.05231658,-10.07379389
BR,AC,assis-brasil,Assis Brasil,Assis Brasil,326269,Q1754403,,-69.56345917,-10.94286568
BR,AC,brasileia,Brasiléia,Brasileia,326270,Q899406,,-68.74794343,-11.01641102
BR,AC,bujari,Bujari,Bujari,326259,Q1754408,,-67.95185928,-9.820019627
BR,AC,capixaba,Capixaba,Capixaba,326268,Q1800737,,-67.67350797,-10.56976771
BR,AC,cruzeiro-do-sul,Cruzeiro do Sul,Cruzeiro do Sul,326274,Q941136,,-72.67253132,-7.630690005
BR,AC,epitaciolandia,Epitaciolândia,Epitaciolandia,326256,Q1755395,,-68.74486807,-11.02823983
BR,AC,feijo,Feijó,Feijo,326258,Q1994833,,-70.35398361,-8.16024753
BR,AC,jordao,Jordão,Jordao,326252,Q1800793,,-71.95087512,-9.19335786
BR,AC,mancio-lima,Mâncio Lima,Mancio Lima,326262,Q1772621,,-72.91650103,-7.593222594
BR,AC,manoel-urbano,Manoel Urbano,Manoel Urbano,326271,Q1772688,,-69.25994458,-8.836317737
BR,AC,marechal-thaumaturgo,Marechal Thaumaturgo,Marechal Thaumaturgo,326257,Q1772613,,-72.79026591,-8.953591123
BR,AC,placido-de-castro,Plácido de Castro,Placido de Castro,326267,Q964075,,-67.18826009,-10.33513328
BR,AC,porto-walter,Porto Walter,Porto Walter,326264,Q1772588,,-72.74233396,-8.266666363
BR,AC,rio-branco,Rio Branco,Rio Branco,326253,Q171612,TRUE,-67.8105287,-9.978298753
BR,AC,rodrigues-alves,Rodrigues Alves,Rodrigues Alves,326254,Q1800776,,-72.64785491,-7.733602034
BR,AC,santa-rosa-do-purus,Santa Rosa do Purus,Santa Rosa do Purus,326272,Q1772719,,-70.48649689,-9.443406537
BR,AC,senador-guiomard,Senador Guiomard,Senador Guiomard,326261,Q771763,,-67.74317236,-10.14817359
BR,AC,sena-madureira,Sena Madureira,Sena Madureira,326263,Q1754389,,-68.65568406,-9.065339505
BR,AC,tarauaca,Tarauacá,Tarauaca,326255,Q979910,,-70.75550106,-8.155668592
BR,AC,xapuri,Xapuri,Xapuri,326260,Q1012531,,-68.50629481,-10.65207194
BR,AC,porto-acre,Porto Acre,Porto Acre,326265,Q1772602,,-67.54059008,-9.600858231
BR,AM,alvaraes,Alvarães,Alvaraes,332499,Q1808573,,-64.81353468,-3.216583769
BR,AM,amatura,Amaturá,Amatura,332512,Q1772609,,-68.20961464,-3.366805188
BR,AM,anama,Anamã,Anama,332497,Q974915,,-61.40590348,-3.576370427
BR,AM,anori,Anori,Anori,332474,Q931090,,-61.65895538,-3.745385586
BR,AM,apui,Apuí,Apui,332502,Q1112525,,-59.8856661,-7.197870152
BR,AM,atalaia-do-norte,Atalaia do Norte,Atalaia do Norte,332473,Q1793319,,-70.18798928,-4.36615749
BR,AM,autazes,Autazes,Autazes,332503,Q1772695,,-59.13356709,-3.578663642
BR,AM,barcelos,Barcelos,Barcelos,332478,Q807939,,-62.92566966,-0.9728010525
BR,AM,barreirinha,Barreirinha,Barreirinha,332522,Q1772565,,-57.06775049,-2.798149837
BR,AM,benjamin-constant,Benjamin Constant,Benjamin Constant,332518,Q1767926,,-70.02734843,-4.374989019
BR,AM,beruri,Beruri,Beruri,332513,Q584172,,-61.37157089,-3.89451341
BR,AM,boa-vista-do-ramos,Boa Vista do Ramos,Boa Vista do Ramos,332464,Q940548,,-57.58770735,-2.971726532
BR,AM,boca-do-acre,Boca do Acre,Boca do Acre,332492,Q1793334,,-67.39957776,-8.751243196
BR,AM,borba,Borba,Borba,332495,Q2089660,,-59.59455902,-4.390619892
BR,AM,caapiranga,Caapiranga,Caapiranga,332501,Q945469,,-61.21133413,-3.330093392
BR,AM,canutama,Canutama,Canutama,332480,Q1807050,,-64.39423082,-6.529106076
BR,AM,carauari,Carauari,Carauari,332496,Q1794236,,-66.89663528,-4.881665904
BR,AM,careiro,Careiro,Careiro,332515,Q1751325,,-60.36380984,-3.82244727
BR,AM,careiro-da-varzea,Careiro da Várzea,Careiro da Varzea,332462,Q1807045,,-59.82631406,-3.197396595
BR,AM,coari,Coari,Coari,332521,Q645204,,-63.14218398,-4.084219159
BR,AM,codajas,Codajás,Codajas,332491,Q1762074,,-62.06342966,-3.843045933
BR,AM,eirunepe,Eirunepé,Eirunepe,332511,Q1646910,,-69.86629026,-6.667352567
BR,AM,envira,Envira,Envira,332488,Q1750090,,-70.03041254,-7.439817544
BR,AM,fonte-boa,Fonte Boa,Fonte Boa,332510,Q1793768,,-66.09650299,-2.512270685
BR,AM,guajara,Guajará,Guajara,332508,Q1808440,,-72.58243054,-7.547774415
BR,AM,humaita,Humaitá,Humaita,332523,Q1025760,,-63.02669802,-7.512224951
BR,AM,ipixuna,Ipixuna,Ipixuna,332520,Q1794374,,-71.69441806,-7.050980114
BR,AM,iranduba,Iranduba,Iranduba,332514,Q1761947,,-60.19338817,-3.281053878
BR,AM,itacoatiara,Itacoatiara,Itacoatiara,332524,Q1750426,,-58.44017544,-3.140378804
BR,AM,itamarati,Itamarati,Itamarati,332519,Q1102558,,-68.24791744,-6.437799349
BR,AM,itapiranga,Itapiranga,Itapiranga,332516,Q1808448,,-58.03454588,-2.741842752
BR,AM,japura,Japurá,Japura,332494,Q1757955,,-66.99690349,-1.880844859
BR,AM,jurua,Juruá,Jurua,332490,Q1008285,,-66.06304193,-3.474889599
BR,AM,jutai,Jutaí,Jutai,332506,Q684641,,-66.77132755,-2.744646447
BR,AM,labrea,Lábrea,Labrea,332504,Q386631,,-64.79477303,-7.261946553
BR,AM,manacapuru,Manacapuru,Manacapuru,332469,Q983526,,-60.62058945,-3.298278036
BR,AM,manaquiri,Manaquiri,Manaquiri,332467,Q1807976,,-60.45888131,-3.429079669
BR,AM,manaus,Manaus,Manaus,332493,Q40236,TRUE,-60.02333518,-3.134691491
BR,AM,manicore,Manicoré,Manicore,332463,Q43490,,-61.29924841,-5.813205261
BR,AM,maraa,Maraã,Maraa,332479,Q1763270,,-65.5742837,-1.866436877
BR,AM,maues,Maués,Maues,332475,Q1808581,,-57.71503439,-3.386427926
BR,AM,nhamunda,Nhamundá,Nhamunda,332482,Q1793306,,-56.71676991,-2.188983767
BR,AM,nova-olinda-do-norte,Nova Olinda do Norte,Nova Olinda do Norte,332481,Q1772535,,-59.09307403,-3.887592832
BR,AM,novo-airao,Novo Airão,Novo Airao,332468,Q1750332,,-60.94881071,-2.623432459
BR,AM,novo-aripuana,Novo Aripuanã,Novo Aripuana,332465,Q1793549,,-60.37704567,-5.122669314
BR,AM,parintins,Parintins,Parintins,332517,Q926713,,-56.73629215,-2.627052586
BR,AM,pauini,Pauini,Pauini,332509,Q1793494,,-67.00209749,-7.714043644
BR,AM,presidente-figueiredo,Presidente Figueiredo,Presidente Figueiredo,332498,Q655097,,-60.02564683,-2.058429085
BR,AM,rio-preto-da-eva,Rio Preto da Eva,Rio Preto da Eva,332500,Q1793560,,-59.70473809,-2.693301542
BR,AM,santa-isabel-do-rio-negro,Santa Isabel do Rio Negro,Santa Isabel do Rio Negro,332484,Q1754543,,-65.02002264,-0.4166948319
BR,AM,santo-antonio-do-ica,Santo Antônio do Içá,Santo Antonio do Ica,332505,Q970224,,-67.94648514,-3.107486309
BR,AM,sao-gabriel-da-cachoeira,São Gabriel da Cachoeira,Sao Gabriel da Cachoeira,332477,Q694840,,-67.0836429,-0.1364627881
BR,AM,sao-paulo-de-olivenca,São Paulo de Olivença,Sao Paulo de Olivenca,332507,Q1794983,,-68.94485349,-3.466509624
BR,AM,sao-sebastiao-do-uatuma,São Sebastião do Uatumã,Sao Sebastiao do Uatuma,332483,Q1793440,,-57.87034636,-2.57015258
BR,AM,silves,Silves,Silves,332471,Q2089673,,-58.21480086,-2.83642743
BR,AM,tabatinga,Tabatinga,Tabatinga,332466,Q22060342,,-69.94624438,-4.231883676
BR,AM,tapaua,Tapauá,Tapaua,332485,Q1794336,,-63.18709487,-5.624223518
BR,AM,tefe,Tefé,Tefe,332487,Q975545,,-64.70841966,-3.348372494
BR,AM,tonantins,Tonantins,Tonantins,332486,Q1793355,,-67.77648228,-2.86109125
BR,AM,uarini,Uarini,Uarini,332489,Q517607,,-65.15534564,-2.983609243
BR,AM,urucara,Urucará,Urucara,332470,Q1816370,,-57.75982817,-2.536611672
BR,AM,urucurituba,Urucurituba,Urucurituba,332472,Q1793833,,-58.15964104,-3.134633116
BR,RR,amajari,Amajari,Amajari,326296,Q1646965,,-61.42059017,3.652118445
BR,RR,alto-alegre,Alto Alegre,Alto Alegre,326291,Q1763240,,-61.31402239,2.993822948
BR,RR,boa-vista,Boa Vista,Boa Vista,326286,Q181056,TRUE,-60.67053267,2.816681919
BR,RR,bonfim,Bonfim,Bonfim,326289,Q1763254,,-59.87800663,3.350288619
BR,RR,canta,Cantá,Canta,326284,Q1646914,,-60.60206285,2.607666398
BR,RR,caracarai,Caracaraí,Caracarai,326293,Q772563,,-61.14917687,1.803871247
BR,RR,caroebe,Caroebe,Caroebe,326290,Q748315,,-59.69481007,0.8726745072
BR,RR,iracema,Iracema,Iracema,326294,Q1786374,,-61.05225859,2.168214765
BR,RR,mucajai,Mucajaí,Mucajai,326297,Q1637423,,-60.91151853,2.479772235
BR,RR,normandia,Normandia,Normandia,326282,Q1750038,,-59.63520628,3.882978285
BR,RR,pacaraima,Pacaraima,Pacaraima,326283,Q1647045,,-61.14730635,4.47525934
BR,RR,rorainopolis,Rorainópolis,Rorainopolis,326292,Q1646932,,-60.42506049,0.9371953936
BR,RR,sao-joao-da-baliza,São João da Baliza,Sao Joao da Baliza,326285,Q1646960,,-59.90604435,0.9471574275
BR,RR,sao-luiz,São Luiz,Sao Luiz,326295,Q1751337,,-60.02826677,1.018111627
BR,RR,uiramuta,Uiramutã,Uiramuta,326288,Q1637434,,-60.19571615,4.585440388
BR,PA,abaetetuba,Abaetetuba,Abaetetuba,185660,Q1615298,,-48.88440382,-1.723469863
BR,PA,abel-figueiredo,Abel Figueiredo,Abel Figueiredo,185560,Q942803,,-48.39676213,-4.951390896
BR,PA,acara,Acará,Acara,185641,Q1804839,,-48.20045643,-1.9634365
BR,PA,afua,Afuá,Afua,185616,Q389536,,-50.39142759,-0.1591716938
BR,PA,agua-azul-do-norte,Água Azul do Norte,Agua Azul do Norte,185622,Q1804899,,-50.48527451,-6.804948867
BR,PA,alenquer,Alenquer,Alenquer,185674,Q2289869,,-54.74086235,-1.951397505
BR,PA,almeirim,Almeirim,Almeirim,185668,Q22067014,,-52.57683509,-1.527338803
BR,PA,altamira,Altamira,Altamira,185554,Q434285,,-52.21437631,-3.20565951
BR,PA,anajas,Anajás,Anajas,185578,Q1804346,,-49.94500104,-0.984451394
BR,PA,ananindeua,Ananindeua,Ananindeua,185610,Q485887,,-48.37206665,-1.368713568
BR,PA,anapu,Anapu,Anapu,185572,Q486142,,-51.2016218,-3.476104635
BR,PA,augusto-correa,Augusto Corrêa,Augusto Correa,90129,Q1804338,,-46.64164579,-1.02292101
BR,PA,aurora-do-para,Aurora do Pará,Aurora do Para,185553,Q2008798,,-47.5561746,-2.129376013
BR,PA,aveiro,Aveiro,Aveiro,185570,Q790342,,-55.33073439,-3.605595259
BR,PA,bagre,Bagre,Bagre,185636,Q1804902,,-50.22198692,-1.88980806
BR,PA,baiao,Baião,Baiao,185671,Q804068,,-49.67275337,-2.791961861
BR,PA,bannach,Bannach,Bannach,185658,Q1804877,,-50.40604712,-7.351072192
BR,PA,barcarena,Barcarena,Barcarena,185661,Q2009595,,-48.62707289,-1.505767005
BR,PA,belem,Belém,Belem,185567,Q12829733,TRUE,-48.48782569,-1.459845
BR,PA,belterra,Belterra,Belterra,185582,Q609824,,-54.94267474,-2.64902017
BR,PA,benevides,Benevides,Benevides,185571,Q1804361,,-48.24183645,-1.361437515
BR,PA,bom-jesus-do-tocantins,Bom Jesus do Tocantins,Bom Jesus do Tocantins,185590,Q2130429,,-48.59903996,-5.047362704
BR,PA,bonito,Bonito,Bonito,90139,Q2078868,,-47.30589182,-1.367474357
BR,PA,braganca,Bragança,Braganca,90128,Q320487,,-46.76575421,-1.053523956
BR,PA,brasil-novo,Brasil Novo,Brasil Novo,185604,Q2008779,,-52.54344119,-3.297803704
BR,PA,brejo-grande-do-araguaia,Brejo Grande do Araguaia,Brejo Grande do Araguaia,185595,Q1975881,,-48.40576042,-5.707296154
BR,PA,breu-branco,Breu Branco,Breu Branco,185672,Q2008139,,-49.56987968,-3.778135413
BR,PA,breves,Breves,Breves,185663,Q1804770,,-50.4808948,-1.6907365
BR,PA,bujaru,Bujaru,Bujaru,185609,Q2009108,,-48.03587501,-1.513991462
BR,PA,cachoeira-do-piria,Cachoeira do Piriá,Cachoeira do Piria,185645,Q947745,,-46.54739142,-1.752897005
BR,PA,cachoeira-do-arari,Cachoeira do Arari,Cachoeira do Arari,185614,Q1804813,,-48.96066758,-1.008786266
BR,PA,cameta,Cametá,Cameta,185644,Q1805206,,-49.49783017,-2.24683848
BR,PA,canaa-dos-carajas,Canaã dos Carajás,Canaa dos Carajas,185626,Q2009474,,-49.84895843,-6.532196616
BR,PA,capanema,Capanema,Capanema,90136,Q1947031,,-47.17512612,-1.192441995
BR,PA,capitao-poco,Capitão Poço,Capitao Poco,2702845,Q955914,,-47.06282538,-1.746187293
BR,PA,castanhal,Castanhal,Castanhal,185664,Q984581,,-47.92664314,-1.295756805
BR,PA,chaves,Chaves,Chaves,185548,Q1899080,,-49.98931861,-0.1624372901
BR,PA,colares,Colares,Colares,185598,Q2008619,,-48.28872843,-0.932091244
BR,PA,conceicao-do-araguaia,Conceição do Araguaia,Conceicao do Araguaia,185643,Q1788037,,-49.26450081,-8.26486353
BR,PA,concordia-do-para,Concórdia do Pará,Concordia do Para,185673,Q2008125,,-47.94988694,-1.984521463
BR,PA,cumaru-do-norte,Cumaru do Norte,Cumaru do Norte,185615,Q2008271,,-50.77157838,-7.811106537
BR,PA,curionopolis,Curionópolis,Curionopolis,185662,Q2008449,,-49.60221423,-6.096819952
BR,PA,curralinho,Curralinho,Curralinho,185634,Q2011907,,-49.79152285,-1.80942342
BR,PA,curua,Curuá,Curua,185607,Q2008226,,-55.11967861,-1.889928704
BR,PA,curuca,Curuçá,Curuca,185576,Q1814514,,-47.85126509,-0.73249551
BR,PA,dom-eliseu,Dom Eliseu,Dom Eliseu,185640,Q2008541,,-47.55591489,-4.29077772
BR,PA,eldorado-do-carajas,Eldorado do Carajás,Eldorado do Carajas,185565,Q2008261,,-49.37395194,-6.103525161
BR,PA,faro,Faro,Faro,185656,Q2246005,,-56.74575302,-2.172975242
BR,PA,floresta-do-araguaia,Floresta do Araguaia,Floresta do Araguaia,185558,Q2008493,,-49.69757841,-7.558700872
BR,PA,garrafao-do-norte,Garrafão do Norte,Garrafao do Norte,185602,Q2008750,,-47.04504602,-1.931697043
BR,PA,goianesia-do-para,Goianésia do Pará,Goianesia do Para,185650,Q2008317,,-49.10104492,-3.842468
BR,PA,gurupa,Gurupá,Gurupa,185621,Q2011913,,-51.64369572,-1.404918
BR,PA,igarape-grande,Igarapé-Açu,Igarape-Acu,185585,Q2009058,,-47.62237549,-1.124322
BR,PA,igarape-miri,Igarapé-Miri,Igarape-Miri,185630,Q651613,,-48.96229947,-1.983116
BR,PA,inhangapi,Inhangapi,Inhangapi,185666,Q1880531,,-47.91339275,-1.426581981
BR,PA,ipixuna-do-para,Ipixuna do Pará,Ipixuna do Para,185574,Q675175,,-47.49971759,-2.5575285
BR,PA,irituia,Irituia,Irituia,185563,Q2008410,,-47.44075561,-1.771474995
BR,PA,itaituba,Itaituba,Itaituba,185625,Q655734,,-55.99004886,-4.26372948
BR,PA,itupiranga,Itupiranga,Itupiranga,185601,Q2008167,,-49.32442586,-5.128837026
BR,PA,jacareacanga,Jacareacanga,Jacareacanga,185577,Q1805252,,-57.76633986,-6.223551731
BR,PA,jacunda,Jacundá,Jacunda,185620,Q1967407,,-49.11278156,-4.448405475
BR,PA,juruti,Juruti,Juruti,185618,Q1008242,,-56.09499769,-2.155252995
BR,PA,limoeiro-do-ajuru,Limoeiro do Ajuru,Limoeiro do Ajuru,185657,Q2008564,,-49.3815339,-1.8919485
BR,PA,mae-do-rio,Mãe do Rio,Mae do Rio,185589,Q2008401,,-47.55229018,-2.047707441
BR,PA,magalhaes-barata,Magalhães Barata,Magalhaes Barata,185592,Q2008546,,-47.5991819,-0.795850156
BR,PA,maraba,Marabá,Maraba,185659,Q509818,,-49.14202533,-5.352605763
BR,PA,maracana,Maracanã,Maracana,185588,Q2089279,,-47.45526796,-0.76241946
BR,PA,marapanim,Marapanim,Marapanim,185649,Q1990477,,-47.70254875,-0.7121509963
BR,PA,marituba,Marituba,Marituba,185631,Q1805166,,-48.34053588,-1.346417266
BR,PA,medicilandia,Medicilândia,Medicilandia,185581,Q2009048,,-52.88834535,-3.445417412
BR,PA,melgaco,Melgaço,Melgaco,185584,Q2011923,,-50.7174647,-1.803446699
BR,PA,mocajuba,Mocajuba,Mocajuba,185623,Q2008596,,-49.50902346,-2.582872973
BR,PA,moju,Moju,Moju,185561,Q2008213,,-48.76719913,-1.885889
BR,PA,mojui-dos-campos,Mojuí dos Campos,Mojui dos Campos,3049385,Q22074332,,-54.64326888,-2.68245777
BR,PA,monte-alegre,Monte Alegre,Monte Alegre,185593,Q2289897,,-54.07337473,-2.003328
BR,PA,muana,Muaná,Muana,185606,Q1804369,,-49.21683244,-1.530026208
BR,PA,nova-esperanca-do-piria,Nova Esperança do Piriá,Nova Esperanca do Piria,185573,Q1121422,,-46.96209288,-2.267625989
BR,PA,nova-ipixuna,Nova Ipixuna,Nova Ipixuna,185679,Q728098,,-49.07988694,-4.923086307
BR,PA,nova-timboteua,Nova Timboteua,Nova Timboteua,2702846,Q2009430,,-47.39320228,-1.204143648
BR,PA,novo-progresso,Novo Progresso,Novo Progresso,185651,Q1787759,,-55.41987012,-7.034835913
BR,PA,novo-repartimento,Novo Repartimento,Novo Repartimento,185647,Q769811,,-49.94863824,-4.2481485
BR,PA,obidos,Óbidos,Obidos,185569,Q577167,,-55.51632351,-1.909235496
BR,PA,oeiras-do-para,Oeiras do Pará,Oeiras do Para,185638,Q2008580,,-49.85510611,-2.004734
BR,PA,oriximina,Oriximiná,Oriximina,185652,Q2011919,,-55.86279952,-1.7637535
BR,PA,ourem,Ourém,Ourem,90140,Q1829502,,-47.11761936,-1.548947142
BR,PA,ourilandia-do-norte,Ourilândia do Norte,Ourilandia do Norte,185605,Q2008237,,-51.09083277,-6.740617086
BR,PA,pacaja,Pacajá,Pacaja,185552,Q592117,,-50.63484083,-3.830305704
BR,PA,palestina-do-para,Palestina do Pará,Palestina do Para,185566,Q2009230,,-48.32179373,-5.749934106
BR,PA,paragominas,Paragominas,Paragominas,185667,Q935005,,-47.35696156,-2.9941905
BR,PA,parauapebas,Parauapebas,Parauapebas,185575,Q1806100,,-49.90078063,-6.072729888
BR,PA,pau-darco,Pau d'Arco,Pau d'Arco,185608,Q2008624,,-50.04827553,-7.836794404
BR,PA,peixe-boi,Peixe-Boi,Peixe-Boi,90135,Q2009222,,-47.31792702,-1.189569241
BR,PA,picarra,Piçarra,Picarra,185629,Q2008277,,-48.86840067,-6.453676235
BR,PA,placas,Placas,Placas,185676,Q602405,,-54.21696813,-3.867315562
BR,PA,ponta-de-pedras,Ponta de Pedras,Ponta de Pedras,185678,Q1804377,,-48.87178556,-1.396599998
BR,PA,portel,Portel,Portel,185632,Q2089210,,-50.82249044,-1.936451
BR,PA,porto-de-moz,Porto de Moz,Porto de Moz,185654,Q2011894,,-52.24247692,-1.746090089
BR,PA,prainha,Prainha,Prainha,185568,Q2009663,,-53.48181394,-1.8056945
BR,PA,primavera,Primavera,Primavera,90134,Q2329733,,-47.11725126,-0.9401115159
BR,PA,quatipuru,Quatipuru,Quatipuru,90132,Q2008521,,-47.00678699,-0.9001158537
BR,PA,redencao,Redenção,Redencao,185557,Q2381693,,-50.02964183,-8.0276045
BR,PA,rio-maria,Rio Maria,Rio Maria,185549,Q2008301,,-50.04641088,-7.311115245
BR,PA,rondon-do-para,Rondon do Pará,Rondon do Para,185603,Q2008429,,-48.06997375,-4.777821727
BR,PA,ruropolis,Rurópolis,Ruropolis,185564,Q2009519,,-54.90586226,-4.09906539
BR,PA,salinopolis,Salinópolis,Salinopolis,185586,Q1008198,,-47.35312026,-0.623638
BR,PA,salvaterra,Salvaterra,Salvaterra,185583,Q1921992,,-48.5131866,-0.7545259744
BR,PA,santa-barbara-do-para,Santa Bárbara do Pará,Santa Barbara do Para,185551,Q2009202,,-48.29774065,-1.229439467
BR,PA,santa-cruz-do-arari,Santa Cruz do Arari,Santa Cruz do Arari,185599,Q640618,,-49.17161557,-0.6599741256
BR,PA,santa-izabel-do-para,Santa Izabel do Pará,Santa Izabel do Para,185646,Q2008554,,-48.16305994,-1.297395901
BR,PA,santa-luzia-do-para,Santa Luzia do Pará,Santa Luzia do Para,185628,Q2008573,,-46.9061692,-1.518827891
BR,PA,santa-maria-das-barreiras,Santa Maria das Barreiras,Santa Maria das Barreiras,185600,Q2009212,,-49.71935186,-8.87055054
BR,PA,santa-maria-do-para,Santa Maria do Pará,Santa Maria do Para,185580,Q1901157,,-47.57469541,-1.347866459
BR,PA,santana-do-araguaia,Santana do Araguaia,Santana do Araguaia,185665,Q2008589,,-50.34480432,-9.329424525
BR,PA,santarem,Santarém,Santarem,185639,Q659450,,-54.71857017,-2.43621333
BR,PA,santarem-novo,Santarém Novo,Santarem Novo,185635,Q1811192,,-47.40092474,-0.9287195358
BR,PA,santo-antonio-do-taua,Santo Antônio do Tauá,Santo Antonio do Taua,185677,Q2009548,,-48.13243307,-1.1516925
BR,PA,sao-caetano-de-odivelas,São Caetano de Odivelas,Sao Caetano de Odivelas,185613,Q632789,,-48.0258055,-0.74661776
BR,PA,sao-domingos-do-araguaia,São Domingos do Araguaia,Sao Domingos do Araguaia,185559,Q1841455,,-48.72037341,-5.549841
BR,PA,sao-domingos-do-capim,São Domingos do Capim,Sao Domingos do Capim,185624,Q955985,,-47.77478457,-1.6758145
BR,PA,sao-felix-do-xingu,São Félix do Xingu,Sao Felix do Xingu,185669,Q1807317,,-51.99378252,-6.642483278
BR,PA,sao-francisco-do-para,São Francisco do Pará,Sao Francisco do Para,185642,Q2008769,,-47.79051461,-1.170188785
BR,PA,sao-geraldo-do-araguaia,São Geraldo do Araguaia,Sao Geraldo do Araguaia,185550,Q2008501,,-48.55571249,-6.39895797
BR,PA,sao-joao-da-ponta,São João da Ponta,Sao Joao da Ponta,185619,Q2008293,,-47.92072417,-0.8510021453
BR,PA,sao-joao-de-pirabas,São João de Pirabas,Sao Joao de Pirabas,185653,Q2008440,,-47.1726743,-0.7664425315
BR,PA,sao-joao-do-araguaia,São João do Araguaia,Sao Joao do Araguaia,185555,Q2008417,,-48.7886334,-5.359002724
BR,PA,sao-miguel-do-guama,São Miguel do Guamá,Sao Miguel do Guama,185611,Q2008532,,-47.48240894,-1.617135915
BR,PA,sao-sebastiao-da-boa-vista,São Sebastião da Boa Vista,Sao Sebastiao da Boa Vista,185591,Q1868533,,-49.53231217,-1.7188505
BR,PA,sapucaia,Sapucaia,Sapucaia,185556,Q2289887,,-49.70358071,-6.942857113
BR,PA,senador-jose-porfirio,Senador José Porfírio,Senador Jose Porfirio,185633,Q609027,,-51.95305642,-2.594850418
BR,PA,soure,Soure,Soure,185596,Q1016643,,-48.51601266,-0.7259255
BR,PA,tailandia,Tailândia,Tailandia,185612,Q2289846,,-48.95128163,-2.9370795
BR,PA,terra-alta,Terra Alta,Terra Alta,185637,Q2289951,,-47.90780835,-1.034826664
BR,PA,terra-santa,Terra Santa,Terra Santa,185597,Q2003795,,-56.49090477,-2.108114474
BR,PA,tome-acu,Tomé-Açu,Tome-Acu,185655,Q1805230,,-48.14689659,-2.419366855
BR,PA,tracuateua,Tracuateua,Tracuateua,90131,Q2008789,,-46.89947834,-1.068784059
BR,PA,trairao,Trairão,Trairao,185587,Q2009409,,-55.99617003,-4.69981915
BR,PA,tucuma,Tucumã,Tucuma,185594,Q22060188,,-51.13953925,-6.749972007
BR,PA,tucurui,Tucuruí,Tucurui,185562,Q374432,,-49.66718437,-3.766889084
BR,PA,ulianopolis,Ulianópolis,Ulianopolis,185627,Q2008337,,-47.50314476,-3.75719301
BR,PA,uruara,Uruará,Uruara,185670,Q2009083,,-53.73703105,-3.7065285
BR,PA,vigia,Vigia,Vigia,185648,Q1804913,,-48.14149859,-0.8555325737
BR,PA,viseu,Viseu,Viseu,90130,Q772569,,-46.13876522,-1.203278527
BR,PA,vitoria-do-xingu,Vitória do Xingu,Vitoria do Xingu,185675,Q2008512,,-52.01126035,-2.88376571
BR,PA,xinguara,Xinguara,Xinguara,185617,Q2008249,,-49.94270058,-7.101512827
BR,AP,serra-do-navio,Serra do Navio,Serra do Navio,331467,Q1754413,,-52.00353844,0.897841041
BR,AP,amapa,Amapá,Amapa,331477,Q586263,,-50.79321447,2.053921245
BR,AP,pedra-branca-do-amapari,Pedra Branca do Amapari,Pedra Branca do Amapari,331465,Q1772647,,-51.94659427,0.7768828606
BR,AP,calcoene,Calçoene,Calcoene,331472,Q1754431,,-50.94477273,2.496559045
BR,AP,cutias,Cutias,Cutias,331466,Q1754422,,-50.80162603,0.9710780554
BR,AP,ferreira-gomes,Ferreira Gomes,Ferreira Gomes,331479,Q1647054,,-51.18742905,0.8539773931
BR,AP,itaubal,Itaubal,Itaubal,331468,Q368933,,-50.70017944,0.6006532883
BR,AP,laranjal-do-jari,Laranjal do Jari,Laranjal do Jari,331469,Q1117969,,-52.53902074,-0.8556645
BR,AP,macapa,Macapá,Macapa,331473,Q180215,TRUE,-51.05740546,0.03895101
BR,AP,mazagao,Mazagão,Mazagao,331475,Q1800704,,-51.28607686,-0.1243963288
BR,AP,oiapoque,Oiapoque,Oiapoque,331471,Q906717,,-51.83055256,3.851130733
BR,AP,porto-grande,Porto Grande,Porto Grande,331470,Q1772692,,-51.41444882,0.7125547018
BR,AP,pracuuba,Pracuúba,Pracuuba,331474,Q1772625,,-50.78425372,1.742508487
BR,AP,santana,Santana,Santana,331476,Q1994845,,-51.17284647,-0.0383734791
BR,AP,tartarugalzinho,Tartarugalzinho,Tartarugalzinho,331478,Q1800762,,-50.91278615,1.50984824
BR,AP,vitoria-do-jari,Vitória do Jari,Vitoria do Jari,331464,Q1772675,,-52.41961478,-0.9189770885
BR,TO,abreulandia,Abreulândia,Abreulandia,336740,Q1784836,,-49.16243756,-9.621790712
BR,TO,aguiarnopolis,Aguiarnópolis,Aguiarnopolis,336780,Q1802133,,-47.47045659,-6.547170821
BR,TO,alianca-do-tocantins,Aliança do Tocantins,Alianca do Tocantins,336857,Q1802116,,-48.94124002,-11.30374305
BR,TO,almas,Almas,Almas,336768,Q22060165,,-47.17417168,-11.57452347
BR,TO,alvorada,Alvorada,Alvorada,336831,Q22060164,,-49.12681141,-12.47881532
BR,TO,ananas,Ananás,Ananas,336748,Q1948373,,-48.07976461,-6.362818154
BR,TO,angico,Angico,Angico,336775,Q2011594,,-47.86207784,-6.38775275
BR,TO,aparecida-do-rio-negro,Aparecida do Rio Negro,Aparecida do Rio Negro,336847,Q1802077,,-47.97667001,-9.955877715
BR,TO,aragominas,Aragominas,Aragominas,336875,Q1801778,,-48.52343019,-7.164349271
BR,TO,araguacema,Araguacema,Araguacema,336771,Q1801734,,-49.56181264,-8.801802544
BR,TO,araguacu,Araguaçu,Araguacu,336846,Q593716,,-49.82861244,-12.92558371
BR,TO,araguaina,Araguaína,Araguaina,336824,Q625279,,-48.20870525,-7.19132894
BR,TO,araguana,Araguanã,Araguana,336869,Q957649,,-48.64374955,-6.58224942
BR,TO,araguatins,Araguatins,Araguatins,336850,Q1783966,,-48.12350734,-5.650586473
BR,TO,arapoema,Arapoema,Arapoema,336792,Q609102,,-49.07563739,-7.652569735
BR,TO,arraias,Arraias,Arraias,336746,Q1801696,,-46.94610706,-12.93441986
BR,TO,augustinopolis,Augustinópolis,Augustinopolis,336794,Q1801708,,-47.88095679,-5.465414296
BR,TO,aurora-do-tocantins,Aurora do Tocantins,Aurora do Tocantins,336849,Q1801726,,-46.40708298,-12.70848986
BR,TO,axixa-do-tocantins,Axixá do Tocantins,Axixa do Tocantins,336864,Q1801670,,-47.77415603,-5.624309066
BR,TO,babaculandia,Babaçulândia,Babaculandia,336811,Q1801746,,-47.75881613,-7.201864532
BR,TO,bandeirantes-do-tocantins,Bandeirantes do Tocantins,Bandeirantes do Tocantins,336789,Q2011614,,-48.5783806,-7.764859141
BR,TO,barra-do-ouro,Barra do Ouro,Barra do Ouro,336856,Q512635,,-47.68713497,-7.691766599
BR,TO,barrolandia,Barrolândia,Barrolandia,336844,Q1801737,,-48.73146059,-9.831653365
BR,TO,bernardo-sayao,Bernardo Sayão,Bernardo Sayao,336807,Q2011573,,-48.89905435,-7.868512483
BR,TO,bom-jesus-do-tocantins,Bom Jesus do Tocantins,Bom Jesus do Tocantins,336822,Q599288,,-48.16638049,-8.963348013
BR,TO,brasilandia-do-tocantins,Brasilândia do Tocantins,Brasilandia do Tocantins,336759,Q1801749,,-48.48537442,-8.384889351
BR,TO,brejinho-de-nazare,Brejinho de Nazaré,Brejinho de Nazare,336833,Q1801741,,-48.55866023,-11.01080506
BR,TO,buriti-do-tocantins,Buriti do Tocantins,Buriti do Tocantins,336848,Q1801703,,-48.22325013,-5.313538856
BR,TO,cachoeirinha,Cachoeirinha,Cachoeirinha,336825,Q2289907,,-47.91419778,-6.113241647
BR,TO,campos-lindos,Campos Lindos,Campos Lindos,336770,Q1801753,,-46.80197435,-7.971681394
BR,TO,cariri-do-tocantins,Cariri do Tocantins,Cariri do Tocantins,336752,Q1801690,,-49.17104073,-11.88899746
BR,TO,carmolandia,Carmolândia,Carmolandia,336755,Q1801654,,-48.39595993,-7.031478778
BR,TO,carrasco-bonito,Carrasco Bonito,Carrasco Bonito,336806,Q1801716,,-48.03063343,-5.322661355
BR,TO,caseara,Caseara,Caseara,336827,Q1801760,,-49.94869227,-9.267406219
BR,TO,centenario,Centenário,Centenario,336793,Q2116769,,-47.33839851,-8.958463639
BR,TO,chapada-de-areia,Chapada de Areia,Chapada de Areia,336863,Q773264,,-49.18310786,-10.14198858
BR,TO,chapada-da-natividade,Chapada da Natividade,Chapada da Natividade,336820,Q1801647,,-47.75390489,-11.62426783
BR,TO,colinas-do-tocantins,Colinas do Tocantins,Colinas do Tocantins,336843,Q1801758,,-48.48159454,-8.054624676
BR,TO,combinado,Combinado,Combinado,336868,Q746335,,-46.55207234,-12.81860767
BR,TO,conceicao-do-tocantins,Conceição do Tocantins,Conceicao do Tocantins,336816,Q1801713,,-47.29286881,-12.21727777
BR,TO,couto-magalhaes,Couto Magalhães,Couto Magalhaes,336873,Q672837,,-49.17657157,-8.35511837
BR,TO,cristalandia,Cristalândia,Cristalandia,336866,Q1798698,,-49.18630029,-10.59072464
BR,TO,crixas-do-tocantins,Crixás do Tocantins,Crixas do Tocantins,336814,Q1801175,,-48.91551383,-11.10427429
BR,TO,darcinopolis,Darcinópolis,Darcinopolis,336872,Q1801100,,-47.75216111,-6.712351002
BR,TO,dianopolis,Dianópolis,Dianopolis,336871,Q1801150,,-46.82040907,-11.62523188
BR,TO,divinopolis-do-tocantins,Divinópolis do Tocantins,Divinopolis do Tocantins,336784,Q649398,,-49.20541319,-9.79530114
BR,TO,dois-irmaos-do-tocantins,Dois Irmãos do Tocantins,Dois Irmaos do Tocantins,336865,Q967767,,-49.06733864,-9.26129671
BR,TO,duere,Dueré,Duere,336867,Q1800970,,-49.26587592,-11.34128542
BR,TO,esperantina,Esperantina,Esperantina,336773,Q977277,,-48.5441476,-5.366608059
BR,TO,fatima,Fátima,Fatima,336754,Q2196935,,-48.89898266,-10.75250873
BR,TO,figueiropolis,Figueirópolis,Figueiropolis,336782,Q1801233,,-49.17384673,-12.13677998
BR,TO,filadelfia,Filadélfia,Filadelfia,336826,Q690299,,-47.48496414,-7.337611906
BR,TO,formoso-do-araguaia,Formoso do Araguaia,Formoso do Araguaia,336772,Q1801246,,-49.52686036,-11.80514197
BR,TO,fortaleza-do-tabocao,Fortaleza do Tabocão,Fortaleza do Tabocao,336795,Q1801070,,-48.51742642,-9.058965301
BR,TO,goianorte,Goianorte,Goianorte,336870,Q1801208,,-48.93689019,-8.770520805
BR,TO,goiatins,Goiatins,Goiatins,336829,Q1801197,,-47.31543549,-7.70917239
BR,TO,guarai,Guaraí,Guarai,336791,Q1801179,,-48.50864061,-8.836165658
BR,TO,gurupi,Gurupi,Gurupi,336840,Q1784265,,-49.07147747,-11.72977232
BR,TO,ipueiras,Ipueiras,Ipueiras,336815,Q946408,,-48.45192623,-11.24628862
BR,TO,itacaja,Itacajá,Itacaja,336860,Q535056,,-47.7681124,-8.390980552
BR,TO,itaguatins,Itaguatins,Itaguatins,336832,Q1801108,,-47.47993595,-5.775385088
BR,TO,itapiratins,Itapiratins,Itapiratins,336785,Q1800939,,-48.11119961,-8.384329593
BR,TO,itapora-do-tocantins,Itaporã do Tocantins,Itapora do Tocantins,336743,Q770338,,-48.6932637,-8.568828612
BR,TO,jau-do-tocantins,Jaú do Tocantins,Jau do Tocantins,336812,Q1801212,,-48.59460829,-12.65292637
BR,TO,juarina,Juarina,Juarina,336738,Q374444,,-49.09864319,-8.117423968
BR,TO,lagoa-da-confusao,Lagoa da Confusão,Lagoa da Confusao,336766,Q1801577,,-49.62008534,-10.78869556
BR,TO,lagoa-do-tocantins,Lagoa do Tocantins,Lagoa do Tocantins,336787,Q1801591,,-47.56144663,-10.2968867
BR,TO,lajeado,Lajeado,Lajeado,336741,Q2085548,,-48.35850395,-9.744682436
BR,TO,lavandeira,Lavandeira,Lavandeira,336758,Q1801192,,-46.50667572,-12.79165879
BR,TO,lizarda,Lizarda,Lizarda,336845,Q1786619,,-46.67516546,-9.594570288
BR,TO,luzinopolis,Luzinópolis,Luzinopolis,336783,Q1801642,,-47.85682804,-6.19398966
BR,TO,marianopolis-do-tocantins,Marianópolis do Tocantins,Marianopolis do Tocantins,336858,Q1801628,,-49.65103399,-9.798880359
BR,TO,mateiros,Mateiros,Mateiros,336781,Q1801064,,-46.41246574,-10.54442885
BR,TO,maurilandia-do-tocantins,Maurilândia do Tocantins,Maurilandia do Tocantins,336760,Q1801042,,-47.50487996,-5.952566421
BR,TO,miracema-do-tocantins,Miracema do Tocantins,Miracema do Tocantins,336828,Q993530,,-48.38799131,-9.568346078
BR,TO,miranorte,Miranorte,Miranorte,336750,Q1800924,,-48.59263194,-9.517404731
BR,TO,monte-do-carmo,Monte do Carmo,Monte do Carmo,336861,Q1801517,,-48.11042003,-10.76354219
BR,TO,monte-santo-do-tocantins,Monte Santo do Tocantins,Monte Santo do Tocantins,336874,Q2011582,,-48.9908906,-10.00559143
BR,TO,palmeiras-do-tocantins,Palmeiras do Tocantins,Palmeiras do Tocantins,336749,Q1801156,,-47.55868353,-6.611862335
BR,TO,muricilandia,Muricilândia,Muricilandia,336790,Q1801142,,-48.60674528,-7.138519285
BR,TO,natividade,Natividade,Natividade,336838,Q1801567,,-47.72725753,-11.70535738
BR,TO,nazare,Nazaré,Nazare,336855,Q2289927,,-47.66697718,-6.372557969
BR,TO,nova-olinda,Nova Olinda,Nova Olinda,336751,Q2079727,,-48.42480679,-7.633314911
BR,TO,nova-rosalandia,Nova Rosalândia,Nova Rosalandia,336796,Q1801604,,-48.90618072,-10.56687114
BR,TO,novo-acordo,Novo Acordo,Novo Acordo,336852,Q1801572,,-47.66814839,-9.968486466
BR,TO,novo-alegre,Novo Alegre,Novo Alegre,336851,Q1801587,,-46.57729735,-12.90993867
BR,TO,novo-jardim,Novo Jardim,Novo Jardim,336739,Q1801252,,-46.6307873,-11.81587505
BR,TO,oliveira-de-fatima,Oliveira de Fátima,Oliveira de Fatima,336817,Q1801609,,-48.90740157,-10.70836271
BR,TO,palmeirante,Palmeirante,Palmeirante,336802,Q523587,,-47.93424971,-7.857561376
BR,TO,palmeiropolis,Palmeirópolis,Palmeiropolis,336834,Q1801038,,-48.41341396,-13.03988843
BR,TO,paraiso-do-tocantins,Paraíso do Tocantins,Paraiso do Tocantins,336859,Q978148,,-48.88663008,-10.17122076
BR,TO,parana,Paranã,Parana,336839,Q1801570,,-47.88408373,-12.62048149
BR,TO,pau-darco,Pau d'Arco,Pau d'Arco,336797,Q2085357,,-49.36330648,-7.539998356
BR,TO,pedro-afonso,Pedro Afonso,Pedro Afonso,336737,Q1801535,,-48.17755611,-8.964449592
BR,TO,peixe,Peixe,Peixe,336736,Q654261,,-48.53781063,-12.02977383
BR,TO,pequizeiro,Pequizeiro,Pequizeiro,336756,Q1801219,,-48.93517987,-8.593340654
BR,TO,colmeia,Colméia,Colmeia,336757,Q1801662,,-48.75706659,-8.729371807
BR,TO,pindorama-do-tocantins,Pindorama do Tocantins,Pindorama do Tocantins,336841,Q1800896,,-47.57568772,-11.13820258
BR,TO,piraque,Piraquê,Piraque,336813,Q962028,,-48.29370739,-6.769777033
BR,TO,pium,Pium,Pium,336786,Q1800961,,-49.16665801,-10.44093112
BR,TO,ponte-alta-do-bom-jesus,Ponte Alta do Bom Jesus,Ponte Alta do Bom Jesus,336842,Q1800881,,-46.46958679,-12.08781291
BR,TO,ponte-alta-do-tocantins,Ponte Alta do Tocantins,Ponte Alta do Tocantins,336830,Q1801637,,-47.54118036,-10.74067285
BR,TO,porto-alegre-do-tocantins,Porto Alegre do Tocantins,Porto Alegre do Tocantins,336810,Q677566,,-47.0474256,-11.6072591
BR,TO,porto-nacional,Porto Nacional,Porto Nacional,336788,Q1784315,,-48.41215346,-10.70856992
BR,TO,praia-norte,Praia Norte,Praia Norte,336779,Q1801132,,-47.81473173,-5.396712877
BR,TO,presidente-kennedy,Presidente Kennedy,Presidente Kennedy,336747,Q2085534,,-48.50433067,-8.529960828
BR,TO,pugmil,Pugmil,Pugmil,336745,Q1801581,,-48.89422045,-10.42430716
BR,TO,recursolandia,Recursolândia,Recursolandia,336742,Q1801075,,-47.2380412,-8.735360454
BR,TO,riachinho,Riachinho,Riachinho,336753,Q2197944,,-48.1410455,-6.442211388
BR,TO,rio-da-conceicao,Rio da Conceição,Rio da Conceicao,336823,Q1801085,,-46.8803997,-11.40494002
BR,TO,rio-dos-bois,Rio dos Bois,Rio dos Bois,336821,Q580856,,-48.53304797,-9.343742239
BR,TO,rio-sono,Rio Sono,Rio Sono,336836,Q1801199,,-47.89994164,-9.347789334
BR,TO,sampaio,Sampaio,Sampaio,336835,Q1801137,,-47.87579246,-5.349295617
BR,TO,sandolandia,Sandolândia,Sandolandia,336837,Q1801094,,-49.93338815,-12.54160017
BR,TO,santa-fe-do-araguaia,Santa Fé do Araguaia,Santa Fe do Araguaia,336862,Q991120,,-48.6939418,-7.149936385
BR,TO,santa-maria-do-tocantins,Santa Maria do Tocantins,Santa Maria do Tocantins,336854,Q522587,,-47.74527042,-8.774976449
BR,TO,santa-rita-do-tocantins,Santa Rita do Tocantins,Santa Rita do Tocantins,336853,Q1801241,,-48.90929401,-10.86645537
BR,TO,santa-rosa-do-tocantins,Santa Rosa do Tocantins,Santa Rosa do Tocantins,336744,Q1801204,,-48.11995422,-11.451404
BR,TO,santa-tereza-do-tocantins,Santa Tereza do Tocantins,Santa Tereza do Tocantins,336774,Q1801050,,-47.80628832,-10.28236153
BR,TO,santa-terezinha-do-tocantins,Santa Terezinha do Tocantins,Santa Terezinha do Tocantins,336776,Q929170,,-47.68428536,-6.436997618
BR,TO,sao-bento-do-tocantins,São Bento do Tocantins,Sao Bento do Tocantins,336778,Q1801161,,-47.91939229,-6.044999257
BR,TO,sao-felix-do-tocantins,São Félix do Tocantins,Sao Felix do Tocantins,336777,Q1801186,,-46.65498083,-10.17328585
BR,TO,sao-miguel-do-tocantins,São Miguel do Tocantins,Sao Miguel do Tocantins,336761,Q1800932,,-47.57300234,-5.553819529
BR,TO,sao-salvador-do-tocantins,São Salvador do Tocantins,Sao Salvador do Tocantins,336762,Q1800952,,-48.23208499,-12.74743341
BR,TO,sao-sebastiao-do-tocantins,São Sebastião do Tocantins,Sao Sebastiao do Tocantins,336763,Q1801056,,-48.20383415,-5.258961454
BR,TO,sao-valerio,São Valério,Sao Valerio,336764,Q1801542,,-48.23294843,-11.97306746
BR,TO,silvanopolis,Silvanópolis,Silvanopolis,336765,Q1801168,,-48.17982414,-11.14986131
BR,TO,sitio-novo-do-tocantins,Sítio Novo do Tocantins,Sitio Novo do Tocantins,336767,Q1801080,,-47.63742265,-5.604726857
BR,TO,sucupira,Sucupira,Sucupira,336769,Q2011603,,-48.91112628,-11.98622151
BR,TO,taguatinga,Taguatinga,Taguatinga,336803,Q22060005,,-46.4387317,-12.39614174
BR,TO,taipas-do-tocantins,Taipas do Tocantins,Taipas do Tocantins,336804,Q1800947,,-46.9845718,-12.19283721
BR,TO,talisma,Talismã,Talisma,336805,Q1801633,,-49.09111843,-12.78753841
BR,TO,palmas,Palmas,Palmas,336798,Q178993,TRUE,-48.35104371,-10.16325333
BR,TO,tocantinia,Tocantínia,Tocantinia,336799,Q1801598,,-48.37587967,-9.558147734
BR,TO,tocantinopolis,Tocantinópolis,Tocantinopolis,336800,Q587927,,-47.42741293,-6.325634376
BR,TO,tupirama,Tupirama,Tupirama,336801,Q1801526,,-48.2066848,-8.980569549
BR,TO,tupiratins,Tupiratins,Tupiratins,336808,Q1801621,,-48.12299574,-8.395529997
BR,TO,wanderlandia,Wanderlândia,Wanderlandia,336809,Q1798710,,-47.95626773,-6.850125517
BR,TO,xambioa,Xambioá,Xambioa,336818,Q635920,,-48.53160107,-6.41188502
BR,MA,acailandia,Açailândia,Acailandia,332883,Q1763534,,-47.50666459,-4.951377
BR,MA,afonso-cunha,Afonso Cunha,Afonso Cunha,332900,Q532160,,-43.320869,-4.135015477
BR,MA,agua-doce-do-maranhao,Água Doce do Maranhão,Agua Doce do Maranhao,332936,Q2013406,,-42.1155512,-2.840278279
BR,MA,alcantara,Alcântara,Alcantara,332985,Q939522,,-44.41701254,-2.403276525
BR,MA,aldeias-altas,Aldeias Altas,Aldeias Altas,332823,Q2013348,,-43.46873485,-4.630779495
BR,MA,altamira-do-maranhao,Altamira do Maranhão,Altamira do Maranhao,332830,Q2013259,,-45.46467583,-4.162269267
BR,MA,alto-alegre-do-maranhao,Alto Alegre do Maranhão,Alto Alegre do Maranhao,332864,Q373783,,-44.44824749,-4.207227
BR,MA,alto-alegre-do-pindare,Alto Alegre do Pindaré,Alto Alegre do Pindare,332962,Q2028638,,-45.84207962,-3.665170375
BR,MA,alto-parnaiba,Alto Parnaíba,Alto Parnaiba,332819,Q1812998,,-45.92734401,-9.108365932
BR,MA,amapa-do-maranhao,Amapá do Maranhão,Amapa do Maranhao,332774,Q2013296,,-46.0091799,-1.680921495
BR,MA,amarante-do-maranhao,Amarante do Maranhão,Amarante do Maranhao,332886,Q947834,,-46.75063755,-5.557662
BR,MA,anajatuba,Anajatuba,Anajatuba,332973,Q2013314,,-44.62067003,-3.257554842
BR,MA,anapurus,Anapurus,Anapurus,332959,Q2013366,,-43.10579251,-3.667034662
BR,MA,apicum-acu,Apicum-Açu,Apicum-Acu,332873,Q2013356,,-45.07665207,-1.530591578
BR,MA,araguana,Araguanã,Araguana,332834,Q2209464,,-45.66879448,-2.949125623
BR,MA,araioses,Araioses,Araioses,332920,Q2041199,,-41.89913945,-2.889255846
BR,MA,arame,Arame,Arame,332945,Q2036277,,-46.01363628,-4.886081505
BR,MA,arari,Arari,Arari,332865,Q1813008,,-44.77883465,-3.45917097
BR,MA,axixa,Axixá,Axixa,332803,Q630926,,-44.05458581,-2.837796837
BR,MA,bacabal,Bacabal,Bacabal,332958,Q1807313,,-44.78155596,-4.23152463
BR,MA,bacabeira,Bacabeira,Bacabeira,332988,Q2068936,,-44.31542299,-2.985824779
BR,MA,bacuri,Bacuri,Bacuri,332907,Q2089681,,-45.13734894,-1.724046319
BR,MA,bacurituba,Bacurituba,Bacurituba,332935,Q640733,,-44.73574201,-2.710871977
BR,MA,balsas,Balsas,Balsas,332875,Q1813001,,-46.03899267,-7.53116999
BR,MA,barao-de-grajau,Barão de Grajaú,Barao de Grajau,332932,Q591015,,-43.0264527,-6.758955206
BR,MA,barra-do-corda,Barra do Corda,Barra do Corda,332984,Q1807301,,-45.23901102,-5.5083395
BR,MA,barreirinhas,Barreirinhas,Barreirinhas,332880,Q2040600,,-42.82780251,-2.750085949
BR,MA,belagua,Belágua,Belagua,332872,Q2013308,,-43.51006164,-3.156772228
BR,MA,bela-vista-do-maranhao,Bela Vista do Maranhão,Bela Vista do Maranhao,332848,Q2013283,,-45.24824588,-3.73773325
BR,MA,benedito-leite,Benedito Leite,Benedito Leite,332827,Q2068847,,-44.5598568,-7.218799795
BR,MA,bequimao,Bequimão,Bequimao,332798,Q2068952,,-44.78573016,-2.462062995
BR,MA,bernardo-do-mearim,Bernardo do Mearim,Bernardo do Mearim,332980,Q2008013,,-44.7643231,-4.630287491
BR,MA,boa-vista-do-gurupi,Boa Vista do Gurupi,Boa Vista do Gurupi,332974,Q2068253,,-46.29871005,-1.793296136
BR,MA,bom-jardim,Bom Jardim,Bom Jardim,332916,Q2279959,,-45.60188939,-3.544160978
BR,MA,bom-jesus-das-selvas,Bom Jesus das Selvas,Bom Jesus das Selvas,332942,Q2068303,,-46.85324122,-4.489968353
BR,MA,bom-lugar,Bom Lugar,Bom Lugar,332966,Q2068928,,-45.03110786,-4.375509602
BR,MA,brejo,Brejo,Brejo,332972,Q659888,,-42.75084783,-3.679178
BR,MA,brejo-de-areia,Brejo de Areia,Brejo de Areia,332791,Q2068871,,-45.58209527,-4.330629898
BR,MA,buriti,Buriti,Buriti,332779,Q2135872,,-42.92510618,-3.9455715
BR,MA,buriti-bravo,Buriti Bravo,Buriti Bravo,332867,Q2013234,,-43.83562154,-5.835288132
BR,MA,buriticupu,Buriticupu,Buriticupu,332852,Q2013248,,-46.45149532,-4.325947726
BR,MA,buritirana,Buritirana,Buritirana,332888,Q2013324,,-47.01722509,-5.588915142
BR,MA,cachoeira-grande,Cachoeira Grande,Cachoeira Grande,332951,Q2013274,,-44.05968502,-2.931921039
BR,MA,cajapio,Cajapió,Cajapio,332956,Q934637,,-44.67337716,-2.882882203
BR,MA,cajari,Cajari,Cajari,332804,Q510992,,-45.00796534,-3.323868831
BR,MA,campestre-do-maranhao,Campestre do Maranhão,Campestre do Maranhao,332826,Q1122744,,-47.36763286,-6.164716646
BR,MA,candido-mendes,Cândido Mendes,Candido Mendes,332981,Q2068838,,-45.73726837,-1.453889109
BR,MA,cantanhede,Cantanhede,Cantanhede,332943,Q2103724,,-44.38181614,-3.628364312
BR,MA,capinzal-do-norte,Capinzal do Norte,Capinzal do Norte,332815,Q2068268,,-44.33043625,-4.721245389
BR,MA,carolina,Carolina,Carolina,332955,Q651807,,-47.4700918,-7.330783005
BR,MA,carutapera,Carutapera,Carutapera,332842,Q2016480,,-46.02315083,-1.200602
BR,MA,caxias,Caxias,Caxias,332983,Q997107,,-43.35853943,-4.86167499
BR,MA,cedral,Cedral,Cedral,332878,Q2095187,,-44.53078953,-1.997915926
BR,MA,central-do-maranhao,Central do Maranhão,Central do Maranhao,332922,Q2068312,,-44.8318437,-2.191313908
BR,MA,centro-do-guilherme,Centro do Guilherme,Centro do Guilherme,332845,Q2068246,,-46.03996011,-2.456985082
BR,MA,centro-novo-do-maranhao,Centro Novo do Maranhão,Centro Novo do Maranhao,332910,Q2013267,,-46.12840896,-2.144291699
BR,MA,chapadinha,Chapadinha,Chapadinha,332847,Q746060,,-43.36112078,-3.74002452
BR,MA,cidelandia,Cidelândia,Cidelandia,332786,Q924546,,-47.78423278,-5.177421047
BR,MA,codo,Codó,Codo,332990,Q2013225,,-43.88608024,-4.4513375
BR,MA,coelho-neto,Coelho Neto,Coelho Neto,332979,Q2019296,,-43.01401362,-4.2547375
BR,MA,colinas,Colinas,Colinas,332929,Q369679,,-44.24978023,-6.02736552
BR,MA,conceicao-do-lago-acu,Conceição do Lago-Açu,Conceicao do Lago-Acu,332891,Q2012506,,-44.90301591,-3.841118458
BR,MA,coroata,Coroatá,Coroata,332856,Q967552,,-44.1255992,-4.128976
BR,MA,cururupu,Cururupu,Cururupu,332838,Q1886395,,-44.86776162,-1.825520781
BR,MA,davinopolis,Davinópolis,Davinopolis,332817,Q2105097,,-47.40499639,-5.534456216
BR,MA,dom-pedro,Dom Pedro,Dom Pedro,332776,Q1823871,,-44.44000991,-5.038447635
BR,MA,duque-bacelar,Duque Bacelar,Duque Bacelar,332773,Q646515,,-42.9441802,-4.147819097
BR,MA,esperantinopolis,Esperantinópolis,Esperantinopolis,332820,Q2013171,,-44.8860687,-4.870300898
BR,MA,estreito,Estreito,Estreito,332861,Q2068863,,-47.44788299,-6.56808498
BR,MA,feira-nova-do-maranhao,Feira Nova do Maranhão,Feira Nova do Maranhao,332839,Q2068274,,-46.68735522,-6.963135541
BR,MA,fernando-falcao,Fernando Falcão,Fernando Falcao,332971,Q2068889,,-44.9107074,-6.154978463
BR,MA,formosa-da-serra-negra,Formosa da Serra Negra,Formosa da Serra Negra,332941,Q2068944,,-46.18635701,-6.435304106
BR,MA,fortaleza-dos-nogueiras,Fortaleza dos Nogueiras,Fortaleza dos Nogueiras,332809,Q2068880,,-46.18555754,-6.965926088
BR,MA,fortuna,Fortuna,Fortuna,332802,Q2034097,,-44.16062843,-5.736224133
BR,MA,godofredo-viana,Godofredo Viana,Godofredo Viana,332899,Q939995,,-45.77175481,-1.409800187
BR,MA,goncalves-dias,Gonçalves Dias,Goncalves Dias,332885,Q14629944,,-44.30590654,-5.14395557
BR,MA,governador-archer,Governador Archer,Governador Archer,332876,Q2012522,,-44.27575653,-5.025387824
BR,MA,governador-edison-lobao,Governador Edison Lobão,Governador Edison Lobao,332957,Q2012559,,-47.36893584,-5.747411739
BR,MA,governador-eugenio-barros,Governador Eugênio Barros,Governador Eugenio Barros,332772,Q2068814,,-44.24696265,-5.322491002
BR,MA,governador-luiz-rocha,Governador Luiz Rocha,Governador Luiz Rocha,332780,Q432254,,-44.07088734,-5.472864685
BR,MA,governador-newton-bello,Governador Newton Bello,Governador Newton Bello,332799,Q2068907,,-45.6745018,-3.42970472
BR,MA,governador-nunes-freire,Governador Nunes Freire,Governador Nunes Freire,332828,Q2068296,,-45.88148113,-2.13496236
BR,MA,graca-aranha,Graça Aranha,Graca Aranha,332837,Q2082297,,-44.33579126,-5.404821213
BR,MA,grajau,Grajaú,Grajau,332843,Q2043418,,-46.14239564,-5.818548431
BR,MA,guimaraes,Guimarães,Guimaraes,332858,Q2101408,,-44.59774646,-2.135077158
BR,MA,humberto-de-campos,Humberto de Campos,Humberto de Campos,332893,Q1814500,,-43.46509214,-2.591223972
BR,MA,icatu,Icatu,Icatu,332912,Q2068290,,-44.06584847,-2.774827863
BR,MA,igarape-acu,Igarapé do Meio,Igarape do Meio,332949,Q1832376,,-45.1833277,-3.636708522
BR,MA,igarape-do-meio,Igarapé Grande,Igarape Grande,332953,Q2068280,,-44.86740335,-4.660853806
BR,MA,imperatriz,Imperatriz,Imperatriz,332989,Q504755,,-47.47981081,-5.526524025
BR,MA,itaipava-do-grajau,Itaipava do Grajaú,Itaipava do Grajau,332805,Q2068260,,-45.7926825,-5.144582262
BR,MA,itapecuru-mirim,Itapecuru Mirim,Itapecuru Mirim,332816,Q2012733,,-44.35426339,-3.39904548
BR,MA,itinga-do-maranhao,Itinga do Maranhão,Itinga do Maranhao,332895,Q2012566,,-47.52790996,-4.455003998
BR,MA,jatoba,Jatobá,Jatoba,332890,Q2103541,,-44.21991477,-5.819666937
BR,MA,jenipapo-dos-vieiras,Jenipapo dos Vieiras,Jenipapo dos Vieiras,332889,Q781692,,-45.63337911,-5.369424926
BR,MA,joao-lisboa,João Lisboa,Joao Lisboa,332919,Q1875142,,-47.40503615,-5.453662942
BR,MA,joselandia,Joselândia,Joselandia,332939,Q2068225,,-44.69915256,-4.972693329
BR,MA,junco-do-maranhao,Junco do Maranhão,Junco do Maranhao,332986,Q2068232,,-46.07072607,-1.874609598
BR,MA,lago-da-pedra,Lago da Pedra,Lago da Pedra,332851,Q1008300,,-45.12589136,-4.564744515
BR,MA,lago-do-junco,Lago do Junco,Lago do Junco,332863,Q927111,,-45.05134439,-4.607643218
BR,MA,lago-verde,Lago Verde,Lago Verde,332835,Q2105837,,-44.93763523,-4.038711295
BR,MA,lagoa-do-mato,Lagoa do Mato,Lagoa do Mato,332813,Q2012976,,-43.52755912,-6.045277297
BR,MA,lago-dos-rodrigues,Lago dos Rodrigues,Lago dos Rodrigues,332811,Q305180,,-44.97644233,-4.612375777
BR,MA,lagoa-grande-do-maranhao,Lagoa Grande do Maranhão,Lagoa Grande do Maranhao,332829,Q2012551,,-45.39061428,-4.993123737
BR,MA,lajeado-novo,Lajeado Novo,Lajeado Novo,332987,Q930035,,-47.03244752,-6.191609227
BR,MA,lima-campos,Lima Campos,Lima Campos,332952,Q2068220,,-44.46934033,-4.517045987
BR,MA,loreto,Loreto,Loreto,332887,Q2103736,,-45.13924164,-7.094454165
BR,MA,luis-domingues,Luís Domingues,Luis Domingues,332857,Q2068240,,-45.89533199,-1.325460244
BR,MA,magalhaes-de-almeida,Magalhães de Almeida,Magalhaes de Almeida,332860,Q2012532,,-42.20150669,-3.396667674
BR,MA,maracacume,Maracaçumé,Maracacume,332862,Q2064676,,-45.95863904,-2.05616455
BR,MA,maraja-do-sena,Marajá do Sena,Maraja do Sena,332846,Q743349,,-45.45723765,-4.620313324
BR,MA,maranhaozinho,Maranhãozinho,Maranhaozinho,332836,Q1846576,,-45.85561145,-2.235616992
BR,MA,mata-roma,Mata Roma,Mata Roma,332832,Q2012544,,-43.12038942,-3.61904551
BR,MA,matinha,Matinha,Matinha,332797,Q1116758,,-45.03642894,-3.09840003
BR,MA,matoes,Matões,Matoes,332777,Q2012513,,-43.20120828,-5.522465019
BR,MA,matoes-do-norte,Matões do Norte,Matoes do Norte,332963,Q2013059,,-44.55024451,-3.62751878
BR,MA,milagres-do-maranhao,Milagres do Maranhão,Milagres do Maranhao,332975,Q2013332,,-42.61075283,-3.582206641
BR,MA,mirador,Mirador,Mirador,332913,Q2089741,,-44.36260979,-6.377565695
BR,MA,miranda-do-norte,Miranda do Norte,Miranda do Norte,332894,Q2066162,,-44.58427569,-3.562644774
BR,MA,mirinzal,Mirinzal,Mirinzal,332897,Q2066198,,-44.78575599,-2.064224192
BR,MA,moncao,Monção,Moncao,332831,Q2103583,,-45.24758467,-3.49393248
BR,MA,montes-altos,Montes Altos,Montes Altos,332854,Q2012463,,-47.07043951,-5.828562504
BR,MA,morros,Morros,Morros,332874,Q301700,,-44.04454454,-2.861478953
BR,MA,nina-rodrigues,Nina Rodrigues,Nina Rodrigues,332794,Q2020346,,-43.90448476,-3.462464289
BR,MA,nova-colinas,Nova Colinas,Nova Colinas,332822,Q2066151,,-46.25932522,-7.120566004
BR,MA,nova-iorque,Nova Iorque,Nova Iorque,332810,Q568168,,-44.04862673,-6.733203306
BR,MA,nova-olinda-do-maranhao,Nova Olinda do Maranhão,Nova Olinda do Maranhao,332947,Q924503,,-45.70453604,-2.799886544
BR,MA,olho-dagua-das-cunhas,Olho d'Água das Cunhãs,Olho d'Agua das Cunhas,332961,Q2066100,,-45.11957962,-4.13727593
BR,MA,olinda-nova-do-maranhao,Olinda Nova do Maranhão,Olinda Nova do Maranhao,332976,Q2065084,,-45.00323537,-2.997477615
BR,MA,paco-do-lumiar,Paço do Lumiar,Paco do Lumiar,332881,Q628172,,-44.09869235,-2.528063
BR,MA,palmeirandia,Palmeirândia,Palmeirandia,332909,Q2064709,,-44.90446389,-2.647774278
BR,MA,paraibano,Paraibano,Paraibano,332927,Q2261140,,-43.98576205,-6.431825414
BR,MA,parnarama,Parnarama,Parnarama,332933,Q2013043,,-43.09040135,-5.684467176
BR,MA,passagem-franca,Passagem Franca,Passagem Franca,332931,Q2043365,,-43.78174523,-6.173994426
BR,MA,pastos-bons,Pastos Bons,Pastos Bons,332840,Q2066090,,-44.08860251,-6.604027732
BR,MA,paulino-neves,Paulino Neves,Paulino Neves,332869,Q1876128,,-42.54542398,-2.71820599
BR,MA,paulo-ramos,Paulo Ramos,Paulo Ramos,332868,Q2064653,,-45.23998,-4.447956766
BR,MA,pedreiras,Pedreiras,Pedreiras,332787,Q1957216,,-44.60373488,-4.569350688
BR,MA,pedro-do-rosario,Pedro do Rosário,Pedro do Rosario,332944,Q661607,,-45.34645373,-2.968114673
BR,MA,penalva,Penalva,Penalva,332946,Q2066111,,-45.17646169,-3.293233318
BR,MA,peri-mirim,Peri Mirim,Peri Mirim,332964,Q2066022,,-44.8502907,-2.573054649
BR,MA,peritoro,Peritoró,Peritoro,332965,Q1941672,,-44.32585352,-4.370225118
BR,MA,pindare-mirim,Pindaré-Mirim,Pindare-Mirim,332896,Q2065093,,-45.34686792,-3.605500575
BR,MA,pinheiro,Pinheiro,Pinheiro,332882,Q1796449,,-45.0839266,-2.5227405
BR,MA,pio-xii,Pio XII,Pio XII,332921,Q1833985,,-45.16996039,-3.88758753
BR,MA,pirapemas,Pirapemas,Pirapemas,332928,Q2089300,,-44.22828088,-3.725329066
BR,MA,pocao-de-pedras,Poção de Pedras,Pocao de Pedras,332925,Q2104834,,-44.9515514,-4.750025211
BR,MA,porto-franco,Porto Franco,Porto Franco,332911,Q2082418,,-47.3821649,-6.354181864
BR,MA,porto-rico-do-maranhao,Porto Rico do Maranhão,Porto Rico do Maranhao,332884,Q2066074,,-44.58374789,-1.857223215
BR,MA,presidente-dutra,Presidente Dutra,Presidente Dutra,332970,Q637452,,-44.49291886,-5.282374258
BR,MA,presidente-juscelino,Presidente Juscelino,Presidente Juscelino,332954,Q2104269,,-44.07677942,-2.928229246
BR,MA,presidente-medici,Presidente Médici,Presidente Medici,332940,Q2089748,,-45.82070865,-2.383664047
BR,MA,presidente-sarney,Presidente Sarney,Presidente Sarney,332818,Q2013023,,-45.37130226,-2.59553056
BR,MA,presidente-vargas,Presidente Vargas,Presidente Vargas,332821,Q2003321,,-44.03340187,-3.402011522
BR,MA,primeira-cruz,Primeira Cruz,Primeira Cruz,332785,Q960537,,-43.4424433,-2.510583172
BR,MA,raposa,Raposa,Raposa,332859,Q2065202,,-44.10251616,-2.415074903
BR,MA,riachao,Riachão,Riachao,332833,Q685271,,-46.62335014,-7.364565
BR,MA,ribamar-fiquene,Ribamar Fiquene,Ribamar Fiquene,332908,Q2012967,,-47.38347779,-5.933822859
BR,MA,rosario,Rosário,Rosario,332918,Q2106358,,-44.2475186,-2.941543035
BR,MA,sambaiba,Sambaíba,Sambaiba,332879,Q2064949,,-45.3442032,-7.138350898
BR,MA,santa-filomena-do-maranhao,Santa Filomena do Maranhão,Santa Filomena do Maranhao,332902,Q2065314,,-44.56371404,-5.499766807
BR,MA,santa-helena,Santa Helena,Santa Helena,332960,Q2103762,,-45.30516119,-2.234532509
BR,MA,santa-ines,Santa Inês,Santa Ines,332808,Q2469099,,-45.37827245,-3.65857452
BR,MA,santa-luzia,Santa Luzia,Santa Luzia,332812,Q1977528,,-45.66501172,-3.968391465
BR,MA,santa-luzia-do-parua,Santa Luzia do Paruá,Santa Luzia do Parua,332814,Q2064642,,-45.77646156,-2.546161475
BR,MA,santa-quiteria-do-maranhao,Santa Quitéria do Maranhão,Santa Quiteria do Maranhao,332825,Q2013052,,-42.56287301,-3.498484995
BR,MA,santa-rita,Santa Rita,Santa Rita,332824,Q1915115,,-44.31994808,-3.134116766
BR,MA,santana-do-maranhao,Santana do Maranhão,Santana do Maranhao,332781,Q2012500,,-42.40076776,-3.113068343
BR,MA,santo-amaro-do-maranhao,Santo Amaro do Maranhão,Santo Amaro do Maranhao,332788,Q665255,,-43.25528494,-2.502721199
BR,MA,santo-antonio-dos-lopes,Santo Antônio dos Lopes,Santo Antonio dos Lopes,332775,Q2066051,,-44.36144743,-4.873819576
BR,MA,sao-benedito-do-rio-preto,São Benedito do Rio Preto,Sao Benedito do Rio Preto,332778,Q1806571,,-43.52999187,-3.332766004
BR,MA,sao-bento,São Bento,Sao Bento,332807,Q2104116,,-44.82834518,-2.6970075
BR,MA,sao-bernardo,São Bernardo,Sao Bernardo,332806,Q2065297,,-42.42300966,-3.36543651
BR,MA,sao-domingos-do-azeitao,São Domingos do Azeitão,Sao Domingos do Azeitao,332800,Q1977781,,-44.65042391,-6.80442501
BR,MA,sao-domingos-do-maranhao,São Domingos do Maranhão,Sao Domingos do Maranhao,332850,Q2036695,,-44.39287926,-5.565642
BR,MA,sao-felix-de-balsas,São Félix de Balsas,Sao Felix de Balsas,332855,Q2065066,,-44.81144766,-7.084685154
BR,MA,sao-francisco-do-brejao,São Francisco do Brejão,Sao Francisco do Brejao,332853,Q2012495,,-47.3911374,-5.130200787
BR,MA,sao-francisco-do-maranhao,São Francisco do Maranhão,Sao Francisco do Maranhao,332849,Q2065076,,-42.86532173,-6.252797917
BR,MA,sao-joao-batista,São João Batista,Sao Joao Batista,332870,Q1919029,,-44.81176185,-2.953332913
BR,MA,sao-joao-do-caru,São João do Carú,Sao Joao do Caru,332871,Q742676,,-46.25492548,-3.560803407
BR,MA,sao-joao-do-paraiso,São João do Paraíso,Sao Joao do Paraiso,332841,Q2105216,,-47.05061042,-6.466222286
BR,MA,sao-joao-do-soter,São João do Soter,Sao Joao do Soter,332844,Q1966884,,-43.8181818,-5.115739264
BR,MA,sao-joao-dos-patos,São João dos Patos,Sao Joao dos Patos,332892,Q2064621,,-43.70291017,-6.498208152
BR,MA,sao-jose-de-ribamar,São José de Ribamar,Sao Jose de Ribamar,332877,Q1006367,,-44.05754812,-2.55585852
BR,MA,sao-jose-dos-basilios,São José dos Basílios,Sao Jose dos Basilios,332930,Q1907710,,-44.58244652,-5.048687245
BR,MA,sao-luis,São Luís,Sao Luis,332923,Q28441,TRUE,-44.29791856,-2.531885985
BR,MA,sao-luis-gonzaga-do-maranhao,São Luís Gonzaga do Maranhão,Sao Luis Gonzaga do Maranhao,332934,Q2066188,,-44.6627085,-4.373918491
BR,MA,sao-mateus-do-maranhao,São Mateus do Maranhão,Sao Mateus do Maranhao,332937,Q2065276,,-44.46856281,-4.03455051
BR,MA,sao-pedro-da-agua-branca,São Pedro da Água Branca,Sao Pedro da Agua Branca,332938,Q2065266,,-48.42362359,-5.088910997
BR,MA,sao-pedro-dos-crentes,São Pedro dos Crentes,Sao Pedro dos Crentes,332948,Q693685,,-46.53258035,-6.828555641
BR,MA,sao-raimundo-das-mangabeiras,São Raimundo das Mangabeiras,Sao Raimundo das Mangabeiras,332950,Q2065231,,-45.48483143,-7.026962657
BR,MA,sao-raimundo-do-doca-bezerra,São Raimundo do Doca Bezerra,Sao Raimundo do Doca Bezerra,332982,Q1947813,,-45.08416279,-5.103181845
BR,MA,sao-roberto,São Roberto,Sao Roberto,332978,Q744797,,-44.99190116,-5.017366882
BR,MA,sao-vicente-ferrer,São Vicente Ferrer,Sao Vicente Ferrer,332977,Q2095193,,-44.88690458,-2.890731064
BR,MA,satubinha,Satubinha,Satubinha,332968,Q2064663,,-45.23362958,-4.035735495
BR,MA,senador-alexandre-costa,Senador Alexandre Costa,Senador Alexandre Costa,332967,Q1904786,,-44.05630151,-5.261076544
BR,MA,senador-la-rocque,Senador La Rocque,Senador La Rocque,332969,Q1967899,,-47.28919142,-5.441832495
BR,MA,serrano-do-maranhao,Serrano do Maranhão,Serrano do Maranhao,332801,Q1909011,,-45.11464085,-1.852645542
BR,MA,sitio-novo,Sítio Novo,Sitio Novo,332792,Q2099666,,-46.69498334,-5.870629891
BR,MA,sucupira-do-norte,Sucupira do Norte,Sucupira do Norte,332793,Q1873577,,-44.18860271,-6.478284448
BR,MA,sucupira-do-riachao,Sucupira do Riachão,Sucupira do Riachao,332795,Q2065244,,-43.54585332,-6.420108405
BR,MA,tasso-fragoso,Tasso Fragoso,Tasso Fragoso,332796,Q2307499,,-45.74412352,-8.479831018
BR,MA,timbiras,Timbiras,Timbiras,332784,Q1008188,,-43.93843397,-4.253840505
BR,MA,timon,Timon,Timon,332783,Q1017101,,-42.8337279,-5.10068111
BR,MA,trizidela-do-vale,Trizidela do Vale,Trizidela do Vale,332782,Q2065285,,-44.6106852,-4.570126857
BR,MA,tufilandia,Tufilândia,Tufilandia,332790,Q2066033,,-45.63391648,-3.676404118
BR,MA,tuntum,Tuntum,Tuntum,332789,Q1957192,,-44.64901215,-5.24965554
BR,MA,turiacu,Turiaçu,Turiacu,332901,Q634717,,-45.36915242,-1.669022048
BR,MA,turilandia,Turilândia,Turilandia,332898,Q2064492,,-45.30676531,-2.228833525
BR,MA,tutoia,Tutóia,Tutoia,332905,Q2012483,,-42.27684721,-2.763550197
BR,MA,urbano-santos,Urbano Santos,Urbano Santos,332904,Q2064632,,-43.40424847,-3.2084095
BR,MA,vargem-grande,Vargem Grande,Vargem Grande,332903,Q1019640,,-43.91666449,-3.541896
BR,MA,viana,Viana,Viana,332906,Q2106072,,-45.0013067,-3.214562513
BR,MA,vila-nova-dos-martirios,Vila Nova dos Martírios,Vila Nova dos Martirios,332917,Q2065169,,-48.13892648,-5.183511519
BR,MA,vitoria-do-mearim,Vitória do Mearim,Vitoria do Mearim,332914,Q2065110,,-44.86957224,-3.482047365
BR,MA,vitorino-freire,Vitorino Freire,Vitorino Freire,332915,Q1120902,,-45.24418514,-4.2911865
BR,MA,ze-doca,Zé Doca,Ze Doca,332926,Q1806488,,-45.65769786,-3.2754805
BR,PI,acaua,Acauã,Acaua,302709,Q2066143,,-41.08363782,-8.220786663
BR,PI,agricolandia,Agricolândia,Agricolandia,302845,Q1936312,,-42.6591832,-5.795501935
BR,PI,agua-branca,Água Branca,Agua Branca,302769,Q578114,,-42.63513086,-5.893266338
BR,PI,alagoinha-do-piaui,Alagoinha do Piauí,Alagoinha do Piaui,302669,Q2064226,,-40.93463482,-7.00817528
BR,PI,alegrete-do-piaui,Alegrete do Piauí,Alegrete do Piaui,302852,Q633346,,-40.85786299,-7.245349466
BR,PI,alto-longa,Alto Longá,Alto Longa,302804,Q636564,,-42.21032196,-5.250993011
BR,PI,altos,Altos,Altos,302774,Q22060469,,-42.46094804,-5.036546434
BR,PI,alvorada-do-gurgueia,Alvorada do Gurguéia,Alvorada do Gurgueia,302725,Q1940535,,-43.86307158,-8.443959072
BR,PI,amarante,Amarante,Amarante,302826,Q22059801,,-42.85369282,-6.246610772
BR,PI,angical-do-piaui,Angical do Piauí,Angical do Piaui,302863,Q1892127,,-42.74386575,-6.087241692
BR,PI,anisio-de-abreu,Anísio de Abreu,Anisio de Abreu,302719,Q1938748,,-43.03485333,-9.174918531
BR,PI,antonio-almeida,Antônio Almeida,Antonio Almeida,302758,Q2064181,,-44.19653532,-7.219355834
BR,PI,aroazes,Aroazes,Aroazes,302815,Q1940548,,-41.79745334,-6.112850256
BR,PI,aroeiras-do-itaim,Aroeiras do Itaim,Aroeiras do Itaim,302678,Q2095297,,-41.56320442,-7.278745465
BR,PI,arraial,Arraial,Arraial,302658,Q2064170,,-42.53656662,-6.650827028
BR,PI,assuncao-do-piaui,Assunção do Piauí,Assuncao do Piaui,302685,Q2078771,,-41.05083,-5.864914495
BR,PI,avelino-lopes,Avelino Lopes,Avelino Lopes,302667,Q1809642,,-43.94151014,-10.13474501
BR,PI,baixa-grande-do-ribeiro,Baixa Grande do Ribeiro,Baixa Grande do Ribeiro,302841,Q2049334,,-45.21281529,-7.853351959
BR,PI,barra-dalcantara,Barra d'Alcântara,Barra d'Alcantara,302668,Q1938757,,-42.10500208,-6.518873072
BR,PI,barras,Barras,Barras,302767,Q808836,,-42.29533986,-4.243093354
BR,PI,barreiras-do-piaui,Barreiras do Piauí,Barreiras do Piaui,302724,Q618000,,-45.47778771,-9.921246827
BR,PI,barro-duro,Barro Duro,Barro Duro,302756,Q2064159,,-42.51337782,-5.812359708
BR,PI,batalha,Batalha,Batalha,302711,Q2012017,,-42.07521873,-4.020412336
BR,PI,bela-vista-do-piaui,Bela Vista do Piauí,Bela Vista do Piaui,302742,Q378812,,-41.87137964,-7.97218532
BR,PI,belem-do-piaui,Belém do Piauí,Belem do Piaui,302828,Q1811039,,-40.97030219,-7.370139616
BR,PI,beneditinos,Beneditinos,Beneditinos,302808,Q1981008,,-42.3706167,-5.44760286
BR,PI,bertolinia,Bertolínia,Bertolinia,302849,Q769524,,-43.95438774,-7.628624763
BR,PI,betania-do-piaui,Betânia do Piauí,Betania do Piaui,302778,Q2064331,,-40.79662193,-8.145665577
BR,PI,boa-hora,Boa Hora,Boa Hora,302715,Q1838960,,-42.12529574,-4.409009606
BR,PI,bocaina,Bocaina,Bocaina,302831,Q2097681,,-41.32234068,-6.954842333
BR,PI,bom-jesus,Bom Jesus,Bom Jesus,302689,Q891715,,-44.36052508,-9.070948984
BR,PI,bom-principio-do-piaui,Bom Princípio do Piauí,Bom Principio do Piaui,302729,Q2063977,,-41.64520957,-3.189858688
BR,PI,bonfim-do-piaui,Bonfim do Piauí,Bonfim do Piaui,302716,Q2089257,,-42.87966307,-9.166560539
BR,PI,boqueirao-do-piaui,Boqueirão do Piauí,Boqueirao do Piaui,302833,Q2078789,,-42.10362713,-4.485819632
BR,PI,brasileira,Brasileira,Brasileira,302643,Q2329749,,-41.78925964,-4.137829108
BR,PI,brejo-do-piaui,Brejo do Piauí,Brejo do Piaui,302737,Q2089172,,-42.83030181,-8.207064766
BR,PI,buriti-dos-lopes,Buriti dos Lopes,Buriti dos Lopes,302861,Q2064004,,-41.86990885,-3.172721335
BR,PI,buriti-dos-montes,Buriti dos Montes,Buriti dos Montes,302865,Q1999799,,-41.10185139,-5.312066783
BR,PI,cabeceiras-do-piaui,Cabeceiras do Piauí,Cabeceiras do Piaui,302721,Q1938976,,-42.30831607,-4.471331294
BR,PI,cajazeiras-do-piaui,Cajazeiras do Piauí,Cajazeiras do Piaui,302703,Q2064526,,-42.39672729,-6.794184118
BR,PI,cajueiro-da-praia,Cajueiro da Praia,Cajueiro da Praia,302712,Q2064154,,-41.34715036,-2.929227172
BR,PI,caldeirao-grande-do-piaui,Caldeirão Grande do Piauí,Caldeirao Grande do Piaui,302843,Q2064592,,-40.63741891,-7.331559652
BR,PI,campinas-do-piaui,Campinas do Piauí,Campinas do Piaui,302765,Q1938871,,-41.88074529,-7.654778128
BR,PI,campo-alegre-do-fidalgo,Campo Alegre do Fidalgo,Campo Alegre do Fidalgo,302847,Q2064600,,-41.83201332,-8.374480381
BR,PI,campo-grande-do-piaui,Campo Grande do Piauí,Campo Grande do Piaui,302810,Q2064482,,-41.03120096,-7.13599312
BR,PI,campo-largo-do-piaui,Campo Largo do Piauí,Campo Largo do Piaui,302674,Q1938765,,-42.62604104,-3.807868939
BR,PI,campo-maior,Campo Maior,Campo Maior,302832,Q2105005,,-42.1667446,-4.829113927
BR,PI,canavieira,Canavieira,Canavieira,302665,Q2078429,,-43.71942803,-7.69462156
BR,PI,canto-do-buriti,Canto do Buriti,Canto do Buriti,302822,Q2079682,,-42.94402102,-8.10823192
BR,PI,capitao-de-campos,Capitão de Campos,Capitao de Campos,302710,Q2089202,,-41.94352197,-4.458559268
BR,PI,capitao-gervasio-oliveira,Capitão Gervásio Oliveira,Capitao Gervasio Oliveira,302806,Q636789,,-41.81611631,-8.496837868
BR,PI,caracol,Caracol,Caracol,302745,Q2104975,,-43.33420045,-9.276765267
BR,PI,caraubas-do-piaui,Caraúbas do Piauí,Caraubas do Piaui,302840,Q2064040,,-41.84120813,-3.478590538
BR,PI,caridade-do-piaui,Caridade do Piauí,Caridade do Piaui,302736,Q2064398,,-40.99033455,-7.728652388
BR,PI,castelo-do-piaui,Castelo do Piauí,Castelo do Piaui,302700,Q2078710,,-41.54731624,-5.321543871
BR,PI,caxingo,Caxingó,Caxingo,302855,Q1938789,,-41.88268376,-3.426938403
BR,PI,cocal,Cocal,Cocal,302723,Q511764,,-41.55684483,-3.47045349
BR,PI,cocal-de-telha,Cocal de Telha,Cocal de Telha,302802,Q2078362,,-41.97904787,-4.553815724
BR,PI,cocal-dos-alves,Cocal dos Alves,Cocal dos Alves,302732,Q1940520,,-41.45541891,-3.606072591
BR,PI,coivaras,Coivaras,Coivaras,302784,Q2077715,,-42.20731591,-5.091308351
BR,PI,colonia-do-gurgueia,Colônia do Gurguéia,Colonia do Gurgueia,302814,Q2064280,,-43.79601716,-8.187574216
BR,PI,colonia-do-piaui,Colônia do Piauí,Colonia do Piaui,302781,Q2066010,,-42.17711851,-7.223657564
BR,PI,conceicao-do-caninde,Conceição do Canindé,Conceicao do Caninde,302763,Q256489,,-41.59663394,-7.882704154
BR,PI,coronel-jose-dias,Coronel José Dias,Coronel Jose Dias,302740,Q2078647,,-42.4703571,-8.816369412
BR,PI,corrente,Corrente,Corrente,302800,Q2662106,,-45.16331252,-10.44093604
BR,PI,cristalandia-do-piaui,Cristalândia do Piauí,Cristalandia do Piaui,302642,Q1122557,,-45.1860307,-10.64780375
BR,PI,cristino-castro,Cristino Castro,Cristino Castro,302761,Q1940564,,-44.22441475,-8.820186289
BR,PI,curimata,Curimatá,Curimata,302708,Q655584,,-44.30072223,-10.03129243
BR,PI,currais,Currais,Currais,302783,Q2065020,,-44.40300215,-9.012433839
BR,PI,curralinhos,Curralinhos,Curralinhos,302788,Q1871203,,-42.83221052,-5.620453229
BR,PI,curral-novo-do-piaui,Curral Novo do Piauí,Curral Novo do Piaui,302857,Q1936263,,-40.90106947,-7.830797188
BR,PI,demerval-lobao,Demerval Lobão,Demerval Lobao,302834,Q1851653,,-42.67422861,-5.358465466
BR,PI,dirceu-arcoverde,Dirceu Arcoverde,Dirceu Arcoverde,302652,Q2079658,,-42.43956996,-9.335200044
BR,PI,dom-expedito-lopes,Dom Expedito Lopes,Dom Expedito Lopes,302679,Q2064417,,-41.65238521,-6.957901843
BR,PI,domingos-mourao,Domingos Mourão,Domingos Mourao,302651,Q1937344,,-41.27188145,-4.253433635
BR,PI,dom-inocencio,Dom Inocêncio,Dom Inocencio,302803,Q2089195,,-41.97685112,-9.008074943
BR,PI,elesbao-veloso,Elesbão Veloso,Elesbao Veloso,302693,Q2078352,,-42.13814445,-6.201719461
BR,PI,eliseu-martins,Eliseu Martins,Eliseu Martins,302738,Q2064194,,-43.66481113,-8.09646229
BR,PI,esperantina,Esperantina,Esperantina,302851,Q2009973,,-42.23536453,-3.895604531
BR,PI,fartura-do-piaui,Fartura do Piauí,Fartura do Piaui,302813,Q1936286,,-42.7944014,-9.478606286
BR,PI,flores-do-piaui,Flores do Piauí,Flores do Piaui,302744,Q1937384,,-42.9243058,-7.791775602
BR,PI,floresta-do-piaui,Floresta do Piauí,Floresta do Piaui,302683,Q1935819,,-41.80031429,-7.466795375
BR,PI,floriano,Floriano,Floriano,302684,Q2008644,,-43.02064474,-6.769672434
BR,PI,francinopolis,Francinópolis,Francinopolis,302846,Q2077745,,-42.2633661,-6.395292623
BR,PI,francisco-ayres,Francisco Ayres,Francisco Ayres,302690,Q1938945,,-42.69112784,-6.623343532
BR,PI,francisco-macedo,Francisco Macedo,Francisco Macedo,302773,Q2064534,,-40.79556735,-7.327871041
BR,PI,francisco-santos,Francisco Santos,Francisco Santos,302757,Q2078798,,-41.13615734,-6.994171138
BR,PI,fronteiras,Fronteiras,Fronteiras,302823,Q2064409,,-40.61723293,-7.088412533
BR,PI,geminiano,Geminiano,Geminiano,302730,Q1852620,,-41.35757976,-7.158417626
BR,PI,gilbues,Gilbués,Gilbues,302656,Q677076,,-45.34691998,-9.834569906
BR,PI,guadalupe,Guadalupe,Guadalupe,302853,Q2104157,,-43.56692365,-6.785246909
BR,PI,guaribas,Guaribas,Guaribas,302645,Q1969397,,-43.68772103,-9.395111304
BR,PI,hugo-napoleao,Hugo Napoleão,Hugo Napoleao,302817,Q1938815,,-42.56256305,-5.987787891
BR,PI,ilha-grande,Ilha Grande,Ilha Grande,302864,Q2078225,,-41.81977318,-2.854008607
BR,PI,inhuma,Inhuma,Inhuma,302671,Q2104143,,-41.71019406,-6.667120341
BR,PI,ipiranga-do-piaui,Ipiranga do Piauí,Ipiranga do Piaui,302688,Q2042128,,-41.73991413,-6.826932678
BR,PI,isaias-coelho,Isaías Coelho,Isaias Coelho,302649,Q1935791,,-41.67944808,-7.734310697
BR,PI,itainopolis,Itainópolis,Itainopolis,302796,Q662237,,-41.48002531,-7.451280813
BR,PI,itaueira,Itaueira,Itaueira,302735,Q2079025,,-43.02549651,-7.608116633
BR,PI,jacobina-do-piaui,Jacobina do Piauí,Jacobina do Piaui,302672,Q2064385,,-41.21076205,-7.936264488
BR,PI,jaicos,Jaicós,Jaicos,302779,Q953959,,-41.14647481,-7.353152327
BR,PI,jardim-do-mulato,Jardim do Mulato,Jardim do Mulato,302805,Q1991909,,-42.63395956,-6.096577595
BR,PI,jatoba-do-piaui,Jatobá do Piauí,Jatoba do Piaui,302747,Q2079666,,-41.81982222,-4.773158944
BR,PI,jerumenha,Jerumenha,Jerumenha,302743,Q2089161,,-43.50274301,-7.084632194
BR,PI,joao-costa,João Costa,Joao Costa,302666,Q762804,,-42.41784858,-8.489125722
BR,PI,joaquim-pires,Joaquim Pires,Joaquim Pires,302670,Q961001,,-42.1876898,-3.513103548
BR,PI,joca-marques,Joca Marques,Joca Marques,302663,Q2078313,,-42.42773708,-3.488033826
BR,PI,jose-de-freitas,José de Freitas,Jose de Freitas,302662,Q2078167,,-42.57837453,-4.76305064
BR,PI,juazeiro-do-piaui,Juazeiro do Piauí,Juazeiro do Piaui,302751,Q2078842,,-41.70260076,-5.161372754
BR,PI,julio-borges,Júlio Borges,Julio Borges,302644,Q369466,,-44.24370063,-10.32678681
BR,PI,jurema,Jurema,Jurema,302854,Q1941164,,-43.13310974,-9.222024721
BR,PI,lagoinha-do-piaui,Lagoinha do Piauí,Lagoinha do Piaui,302801,Q2064145,,-42.62738373,-5.836583441
BR,PI,lagoa-alegre,Lagoa Alegre,Lagoa Alegre,302653,Q2077708,,-42.61674254,-4.508729749
BR,PI,lagoa-do-barro-do-piaui,Lagoa do Barro do Piauí,Lagoa do Barro do Piaui,302654,Q2064717,,-41.53027541,-8.482437115
BR,PI,lagoa-de-sao-francisco,Lagoa de São Francisco,Lagoa de Sao Francisco,302759,Q1114540,,-41.60546869,-4.392746387
BR,PI,lagoa-do-piaui,Lagoa do Piauí,Lagoa do Piaui,302792,Q1938883,,-42.64901321,-5.41214417
BR,PI,lagoa-do-sitio,Lagoa do Sítio,Lagoa do Sitio,302733,Q1853146,,-41.5823863,-6.51534763
BR,PI,landri-sales,Landri Sales,Landri Sales,302782,Q1938802,,-43.93104552,-7.266599975
BR,PI,luis-correia,Luís Correia,Luis Correia,302726,Q2064046,,-41.66456723,-2.881566536
BR,PI,luzilandia,Luzilândia,Luzilandia,302746,Q1924294,,-42.37163752,-3.460817635
BR,PI,madeiro,Madeiro,Madeiro,302858,Q2064030,,-42.50514125,-3.484212005
BR,PI,manoel-emidio,Manoel Emídio,Manoel Emidio,302768,Q2064262,,-43.87547467,-8.011358674
BR,PI,marcolandia,Marcolândia,Marcolandia,302713,Q1878529,,-40.66285429,-7.443556661
BR,PI,marcos-parente,Marcos Parente,Marcos Parente,302704,Q1938857,,-43.88831401,-7.119295378
BR,PI,massape-do-piaui,Massapê do Piauí,Massape do Piaui,302697,Q1940480,,-41.12385468,-7.465482685
BR,PI,matias-olimpio,Matias Olímpio,Matias Olimpio,302655,Q1894372,,-42.5586289,-3.711027283
BR,PI,miguel-alves,Miguel Alves,Miguel Alves,302827,Q677160,,-42.89316665,-4.168215582
BR,PI,miguel-leao,Miguel Leão,Miguel Leao,302793,Q2078472,,-42.73582953,-5.68224178
BR,PI,milton-brandao,Milton Brandão,Milton Brandao,302825,Q1938844,,-41.44795954,-4.699953478
BR,PI,monsenhor-gil,Monsenhor Gil,Monsenhor Gil,302860,Q1935712,,-42.61739892,-5.551485631
BR,PI,monsenhor-hipolito,Monsenhor Hipólito,Monsenhor Hipolito,302816,Q2060311,,-41.0328934,-7.003502473
BR,PI,monte-alegre-do-piaui,Monte Alegre do Piauí,Monte Alegre do Piaui,302659,Q1938896,,-45.29574022,-9.755833668
BR,PI,morro-cabeca-no-tempo,Morro Cabeça no Tempo,Morro Cabeca no Tempo,302835,Q2098784,,-43.90187437,-9.719319492
BR,PI,morro-do-chapeu-do-piaui,Morro do Chapéu do Piauí,Morro do Chapeu do Piaui,302797,Q2064135,,-42.3090634,-3.742255096
BR,PI,murici-dos-portelas,Murici dos Portelas,Murici dos Portelas,302839,Q2078394,,-42.09676908,-3.323859785
BR,PI,nazare-do-piaui,Nazaré do Piauí,Nazare do Piaui,302809,Q939833,,-42.66822723,-6.967128491
BR,PI,nazaria,Nazária,Nazaria,2706907,Q10335889,,-42.81404847,-5.346925
BR,PI,nossa-senhora-de-nazare,Nossa Senhora de Nazaré,Nossa Senhora de Nazare,302680,Q963907,,-42.17930308,-4.626932092
BR,PI,nossa-senhora-dos-remedios,Nossa Senhora dos Remédios,Nossa Senhora dos Remedios,302657,Q2104808,,-42.62395105,-3.991225352
BR,PI,novo-oriente-do-piaui,Novo Oriente do Piauí,Novo Oriente do Piaui,302720,Q2077697,,-41.92872231,-6.449405137
BR,PI,novo-santo-antonio,Novo Santo Antônio,Novo Santo Antonio,302862,Q2169201,,-41.9345075,-5.286057644
BR,PI,oeiras,Oeiras,Oeiras,302701,Q2077764,,-42.13140566,-7.016418006
BR,PI,olho-dagua-do-casado,Olho d'Água do Piauí,Olho d'Agua do Piaui,302842,Q1940465,,-42.57855161,-5.847158573
BR,PI,padre-marcos,Padre Marcos,Padre Marcos,302739,Q2066171,,-40.90586208,-7.354712116
BR,PI,paes-landim,Paes Landim,Paes Landim,302820,Q2078986,,-42.25695763,-7.775562915
BR,PI,pajeu-do-piaui,Pajeú do Piauí,Pajeu do Piaui,302776,Q519387,,-42.81693609,-7.852520092
BR,PI,palmeira-do-piaui,Palmeira do Piauí,Palmeira do Piaui,302675,Q1936298,,-44.23256858,-8.729501119
BR,PI,palmeirais,Palmeirais,Palmeirais,302811,Q2064013,,-43.06184352,-5.979796836
BR,PI,paqueta,Paquetá,Paqueta,302727,Q2065325,,-41.70138525,-7.101466244
BR,PI,parnagua,Parnaguá,Parnagua,302821,Q2089339,,-44.63431461,-10.21718097
BR,PI,parnaiba,Parnaíba,Parnaiba,302702,Q1643864,,-41.77817059,-2.903360145
BR,PI,passagem-franca-do-piaui,Passagem Franca do Piauí,Passagem Franca do Piaui,302734,Q1937308,,-42.44052675,-5.85624732
BR,PI,patos-do-piaui,Patos do Piauí,Patos do Piaui,302764,Q1940449,,-41.2522814,-7.680763935
BR,PI,pau-darco-do-piaui,Pau d'Arco do Piauí,Pau d'Arco do Piaui,302794,Q1933647,,-42.3888655,-5.251093429
BR,PI,paulistana,Paulistana,Paulistana,302692,Q2064687,,-41.14709649,-8.141436135
BR,PI,pavussu,Pavussu,Pavussu,302660,Q2089236,,-43.2217523,-7.964286955
BR,PI,pedro-ii,Pedro II,Pedro II,302824,Q1934329,,-41.45855993,-4.427055265
BR,PI,pedro-laurentino,Pedro Laurentino,Pedro Laurentino,302707,Q1938919,,-42.28607367,-8.066882594
BR,PI,nova-santa-rita,Nova Santa Rita,Nova Santa Rita,302789,Q2103222,,-42.048262,-8.074964718
BR,PI,picos,Picos,Picos,302661,Q1810825,,-41.46882671,-7.081373912
BR,PI,pimenteiras,Pimenteiras,Pimenteiras,302687,Q2077685,,-41.41515861,-6.24168841
BR,PI,pio-ix,Pio IX,Pio IX,302705,Q2089220,,-40.61827279,-6.832687301
BR,PI,piracuruca,Piracuruca,Piracuruca,302775,Q2063996,,-41.70904155,-3.929287494
BR,PI,piripiri,Piripiri,Piripiri,302698,Q996763,,-41.77850485,-4.276068693
BR,PI,porto,Porto,Porto,302731,Q2113232,,-42.710926,-3.891422995
BR,PI,porto-alegre-do-piaui,Porto Alegre do Piauí,Porto Alegre do Piaui,302714,Q1935805,,-44.1948371,-6.971724687
BR,PI,prata-do-piaui,Prata do Piauí,Prata do Piaui,302772,Q2042707,,-42.20422368,-5.664797694
BR,PI,queimada-nova,Queimada Nova,Queimada Nova,302681,Q1938832,,-41.41702492,-8.585425347
BR,PI,redencao-do-gurgueia,Redenção do Gurguéia,Redencao do Gurgueia,302699,Q1848362,,-44.58121416,-9.493448241
BR,PI,regeneracao,Regeneração,Regeneracao,302838,Q1879913,,-42.68502423,-6.240183021
BR,PI,riacho-frio,Riacho Frio,Riacho Frio,302646,Q1936273,,-44.95253005,-10.12872769
BR,PI,ribeira-do-piaui,Ribeira do Piauí,Ribeira do Piaui,302836,Q521452,,-42.71404349,-7.690575501
BR,PI,ribeiro-goncalves,Ribeiro Gonçalves,Ribeiro Goncalves,302777,Q2064254,,-45.24563868,-7.558034245
BR,PI,rio-grande-do-piaui,Rio Grande do Piauí,Rio Grande do Piaui,302722,Q629855,,-43.14018279,-7.77085712
BR,PI,santa-cruz-do-piaui,Santa Cruz do Piauí,Santa Cruz do Piaui,302829,Q1937333,,-41.76192569,-7.177626496
BR,PI,santa-cruz-dos-milagres,Santa Cruz dos Milagres,Santa Cruz dos Milagres,302673,Q2077726,,-41.95844595,-5.808120998
BR,PI,santa-filomena,Santa Filomena,Santa Filomena,302866,Q2340263,,-45.92055644,-9.106795705
BR,PI,santa-luz,Santa Luz,Santa Luz,302753,Q1938964,,-44.12958591,-8.944624217
BR,PI,santana-do-piaui,Santana do Piauí,Santana do Piaui,302648,Q1938905,,-41.51848056,-6.949071764
BR,PI,santa-rosa-do-piaui,Santa Rosa do Piauí,Santa Rosa do Piaui,302798,Q2065835,,-42.28081388,-6.801455058
BR,PI,santo-antonio-de-lisboa,Santo Antônio de Lisboa,Santo Antonio de Lisboa,302760,Q659267,,-41.23376474,-6.981848477
BR,PI,santo-antonio-dos-milagres,Santo Antônio dos Milagres,Santo Antonio dos Milagres,302682,Q1984524,,-42.71119681,-6.046717596
BR,PI,santo-inacio-do-piaui,Santo Inácio do Piauí,Santo Inacio do Piaui,302677,Q952549,,-41.91821286,-7.422336837
BR,PI,sao-braz-do-piaui,São Braz do Piauí,Sao Braz do Piaui,302785,Q2078851,,-42.99907252,-9.062560536
BR,PI,sao-felix-do-piaui,São Félix do Piauí,Sao Felix do Piaui,302766,Q2078371,,-42.11350259,-5.932867663
BR,PI,sao-francisco-de-assis-do-piaui,São Francisco de Assis do Piauí,Sao Francisco de Assis do Piaui,302718,Q979443,,-41.68959715,-8.23775475
BR,PI,sao-francisco-do-piaui,São Francisco do Piauí,Sao Francisco do Piaui,302850,Q1899910,,-42.53853199,-7.243976104
BR,PI,sao-goncalo-do-gurgueia,São Gonçalo do Gurguéia,Sao Goncalo do Gurgueia,302770,Q1940505,,-45.30140551,-10.02994011
BR,PI,sao-goncalo-do-piaui,São Gonçalo do Piauí,Sao Goncalo do Piaui,302787,Q2005540,,-42.69883098,-5.98966744
BR,PI,sao-joao-da-canabrava,São João da Canabrava,Sao Joao da Canabrava,302695,Q2064374,,-41.34605365,-6.81893099
BR,PI,sao-joao-da-fronteira,São João da Fronteira,Sao Joao da Fronteira,302754,Q2064127,,-41.25628696,-3.938597434
BR,PI,sao-joao-da-serra,São João da Serra,Sao Joao da Serra,302859,Q2099643,,-41.89926375,-5.508797538
BR,PI,sao-joao-da-varjota,São João da Varjota,Sao Joao da Varjota,302706,Q1938932,,-41.8637422,-6.919017839
BR,PI,sao-joao-do-arraial,São João do Arraial,Sao Joao do Arraial,302844,Q2064021,,-42.45312617,-3.813168874
BR,PI,sao-joao-do-piaui,São João do Piauí,Sao Joao do Piaui,302686,Q1937319,,-42.25643753,-8.348849688
BR,PI,sao-jose-do-divino,São José do Divino,Sao Jose do Divino,302691,Q2105469,,-41.83010877,-3.805716357
BR,PI,sao-jose-do-peixe,São José do Peixe,Sao Jose do Peixe,302750,Q769359,,-42.57017942,-7.493008781
BR,PI,sao-jose-do-piaui,São José do Piauí,Sao Jose do Piaui,302676,Q2066044,,-41.47940723,-6.870626245
BR,PI,sao-juliao,São Julião,Sao Juliao,302790,Q1987363,,-40.83691324,-7.085315005
BR,PI,sao-lourenco-do-piaui,São Lourenço do Piauí,Sao Lourenco do Piaui,302812,Q518321,,-42.54435199,-9.172001877
BR,PI,sao-luis-do-piaui,São Luis do Piauí,Sao Luis do Piaui,302830,Q1935674,,-41.32283782,-6.82814383
BR,PI,sao-miguel-da-baixa-grande,São Miguel da Baixa Grande,Sao Miguel da Baixa Grande,302717,Q1935660,,-42.18537737,-5.862298634
BR,PI,sao-miguel-do-fidalgo,São Miguel do Fidalgo,Sao Miguel do Fidalgo,302807,Q2079673,,-42.37052904,-7.584969119
BR,PI,sao-miguel-do-tapuio,São Miguel do Tapuio,Sao Miguel do Tapuio,302741,Q2078456,,-41.31979849,-5.500663699
BR,PI,sao-pedro-do-piaui,São Pedro do Piauí,Sao Pedro do Piaui,302795,Q2077678,,-42.72366017,-5.913951647
BR,PI,sao-raimundo-nonato,São Raimundo Nonato,Sao Raimundo Nonato,302786,Q1935702,,-42.69228516,-9.015360482
BR,PI,sebastiao-barros,Sebastião Barros,Sebastiao Barros,302650,Q1977122,,-44.83328418,-10.81667522
BR,PI,sebastiao-leal,Sebastião Leal,Sebastiao Leal,302848,Q2078343,,-44.06769177,-7.57738563
BR,PI,sigefredo-pacheco,Sigefredo Pacheco,Sigefredo Pacheco,302694,Q2095087,,-41.72755922,-4.911689164
BR,PI,simoes,Simões,Simoes,302791,Q2089169,,-40.81750907,-7.599137166
BR,PI,simplicio-mendes,Simplício Mendes,Simplicio Mendes,302837,Q1943081,,-41.91091036,-7.857957294
BR,PI,socorro-do-piaui,Socorro do Piauí,Socorro do Piaui,302762,Q2065179,,-42.50469172,-7.864938057
BR,PI,sussuapara,Sussuapara,Sussuapara,302728,Q2066083,,-41.39226773,-7.017010589
BR,PI,tamboril-do-piaui,Tamboril do Piauí,Tamboril do Piaui,302748,Q1935687,,-42.90968883,-8.40043178
BR,PI,tanque-do-piaui,Tanque do Piauí,Tanque do Piaui,302856,Q2065348,,-42.28390134,-6.596353467
BR,PI,teresina,Teresina,Teresina,302749,Q165341,TRUE,-42.80527046,-5.086341952
BR,PI,uniao,União,Uniao,302664,Q2101441,,-42.86292972,-4.586018159
BR,PI,urucui,Uruçuí,Urucui,302647,Q22059606,,-44.56025592,-7.229503345
BR,PI,valenca-do-piaui,Valença do Piauí,Valenca do Piaui,302696,Q22059605,,-41.74053599,-6.398196023
BR,PI,varzea-branca,Várzea Branca,Varzea Branca,302780,Q2078860,,-42.96944454,-9.236541089
BR,PI,varzea-grande,Várzea Grande,Varzea Grande,302755,Q22059603,,-42.25310162,-6.542947554
BR,PI,vera-mendes,Vera Mendes,Vera Mendes,302799,Q2064975,,-41.47973675,-7.602849283
BR,PI,vila-nova-do-piaui,Vila Nova do Piauí,Vila Nova do Piaui,302752,Q1979610,,-40.9378014,-7.141046434
BR,PI,wall-ferraz,Wall Ferraz,Wall Ferraz,302771,Q1935648,,-41.90895362,-7.235779006
BR,CE,abaiara,Abaiara,Abaiara,302599,Q1796441,,-39.04754664,-7.356976596
BR,CE,acarape,Acarape,Acarape,302505,Q1808379,,-38.70562377,-4.223138409
BR,CE,acarau,Acaraú,Acarau,302500,Q1796706,,-40.11824147,-2.88531054
BR,CE,acopiara,Acopiara,Acopiara,302627,Q544694,,-39.45570528,-6.092761995
BR,CE,aiuaba,Aiuaba,Aiuaba,302486,Q641440,,-40.12316008,-6.56329844
BR,CE,alcantaras,Alcântaras,Alcantaras,302576,Q2027670,,-40.54463812,-3.586983769
BR,CE,altaneira,Altaneira,Altaneira,302606,Q2021103,,-39.74582064,-6.997498351
BR,CE,alto-santo,Alto Santo,Alto Santo,302609,Q2021254,,-38.27277815,-5.52208174
BR,CE,amontada,Amontada,Amontada,302613,Q947378,,-39.82882279,-3.364877804
BR,CE,antonina-do-norte,Antonina do Norte,Antonina do Norte,302573,Q2021007,,-39.98238684,-6.779687847
BR,CE,apuiares,Apuiarés,Apuiares,302494,Q2028851,,-39.43042278,-3.948018519
BR,CE,aquiraz,Aquiraz,Aquiraz,302563,Q1794121,,-38.38980296,-3.9061945
BR,CE,aracati,Aracati,Aracati,302612,Q1754397,,-37.7727526,-4.56706647
BR,CE,aracoiaba,Aracoiaba,Aracoiaba,302495,Q2289917,,-38.80944097,-4.370393807
BR,CE,ararenda,Ararendá,Ararenda,302454,Q2020998,,-40.83109674,-4.751938272
BR,CE,araripe,Araripe,Araripe,302601,Q2021237,,-40.13744581,-7.206183789
BR,CE,aratuba,Aratuba,Aratuba,302592,Q2013968,,-39.04755456,-4.416930645
BR,CE,arneiroz,Arneiroz,Arneiroz,302482,Q952686,,-40.16144371,-6.319425803
BR,CE,assare,Assaré,Assare,302520,Q1808367,,-39.87127475,-6.872607112
BR,CE,aurora,Aurora,Aurora,302483,Q2289941,,-38.97699088,-6.940391832
BR,CE,baixio,Baixio,Baixio,302594,Q1808481,,-38.72012592,-6.727162049
BR,CE,banabuiu,Banabuiú,Banabuiu,302484,Q1945041,,-38.9257848,-5.315047304
BR,CE,barbalha,Barbalha,Barbalha,302456,Q602143,,-39.30231637,-7.307172127
BR,CE,barreira,Barreira,Barreira,302497,Q2013899,,-38.63850183,-4.288762267
BR,CE,barro,Barro,Barro,302464,Q2028645,,-38.77988065,-7.168208727
BR,CE,barroquinha,Barroquinha,Barroquinha,302469,Q2020987,,-41.13948154,-3.009116746
BR,CE,baturite,Baturité,Baturite,302605,Q2021082,,-38.88002138,-4.331205156
BR,CE,beberibe,Beberibe,Beberibe,302521,Q2028035,,-38.12327304,-4.174763221
BR,CE,bela-cruz,Bela Cruz,Bela Cruz,302615,Q2021089,,-40.16684291,-3.055106724
BR,CE,boa-viagem,Boa Viagem,Boa Viagem,302619,Q1808337,,-39.73328234,-5.12574387
BR,CE,brejo-santo,Brejo Santo,Brejo Santo,302560,Q2027070,,-38.98551387,-7.491638009
BR,CE,camocim,Camocim,Camocim,302510,Q1807057,,-40.84752774,-2.900966575
BR,CE,campos-sales,Campos Sales,Campos Sales,302538,Q1811948,,-40.37900313,-7.0733835
BR,CE,caninde,Canindé,Caninde,302626,Q1008278,,-39.31034295,-4.35534429
BR,CE,capistrano,Capistrano,Capistrano,302499,Q2021203,,-38.90182876,-4.459896612
BR,CE,caridade,Caridade,Caridade,302508,Q2027136,,-39.19303292,-4.224960001
BR,CE,carire,Cariré,Carire,302583,Q2021245,,-40.47384481,-3.95161188
BR,CE,caririacu,Caririaçu,Caririacu,302463,Q2028263,,-39.28437203,-7.041528
BR,CE,carius,Cariús,Carius,302638,Q1811382,,-39.49768868,-6.531127938
BR,CE,carnaubal,Carnaubal,Carnaubal,302540,Q2028395,,-40.93563158,-4.163988562
BR,CE,cascavel,Cascavel,Cascavel,302509,Q787864,,-38.23968594,-4.131433678
BR,CE,catarina,Catarina,Catarina,302633,Q22059576,,-39.87946623,-6.127556291
BR,CE,catunda,Catunda,Catunda,302496,Q22059575,,-40.20580379,-4.651549386
BR,CE,caucaia,Caucaia,Caucaia,302624,Q817233,,-38.66401754,-3.736487
BR,CE,cedro,Cedro,Cedro,302625,Q2027857,,-39.05974315,-6.6049605
BR,CE,chaval,Chaval,Chaval,302478,Q2028829,,-41.24459582,-3.038901189
BR,CE,choro,Choró,Choro,302467,Q2047506,,-39.13746753,-4.842515659
BR,CE,chorozinho,Chorozinho,Chorozinho,302580,Q22059571,,-38.50128567,-4.302170914
BR,CE,coreau,Coreaú,Coreau,302523,Q2027322,,-40.65695108,-3.549487861
BR,CE,crateus,Crateús,Crateus,302569,Q2021123,,-40.66840013,-5.176950551
BR,CE,crato,Crato,Crato,302501,Q1004897,,-39.4083903,-7.23175279
BR,CE,croata,Croatá,Croata,302551,Q1816979,,-40.9090451,-4.414057266
BR,CE,cruz,Cruz,Cruz,302458,Q22059569,,-40.17127871,-2.91670805
BR,CE,deputado-irapuan-pinheiro,Deputado Irapuan Pinheiro,Deputado Irapuan Pinheiro,302518,Q2027304,,-39.26154177,-5.908962374
BR,CE,erere,Ererê,Erere,302530,Q2021415,,-38.34725896,-6.03133273
BR,CE,eusebio,Eusébio,Eusebio,302548,Q2027112,,-38.44512184,-3.886972887
BR,CE,farias-brito,Farias Brito,Farias Brito,302472,Q2021026,,-39.57083502,-6.927109981
BR,CE,forquilha,Forquilha,Forquilha,302470,Q587627,,-40.258769,-3.798957743
BR,CE,fortaleza,Fortaleza,Fortaleza,302588,Q43463,TRUE,-38.58992756,-3.723805035
BR,CE,fortim,Fortim,Fortim,302471,Q2021064,,-37.79897549,-4.449804917
BR,CE,frecheirinha,Frecheirinha,Frecheirinha,302552,Q2027699,,-40.8214052,-3.760611932
BR,CE,general-sampaio,General Sampaio,General Sampaio,302584,Q2021224,,-39.45352995,-4.051041275
BR,CE,graca,Graça,Graca,302623,Q2089608,,-40.7555249,-4.046938794
BR,CE,granja,Granja,Granja,302481,Q2028672,,-40.82993899,-3.118952156
BR,CE,granjeiro,Granjeiro,Granjeiro,302630,Q2026909,,-39.22030889,-6.888884373
BR,CE,groairas,Groaíras,Groairas,302524,Q2028083,,-40.38214602,-3.911954129
BR,CE,guaiuba,Guaiúba,Guaiuba,302489,Q2028404,,-38.63443478,-4.040243501
BR,CE,guaraciaba-do-norte,Guaraciaba do Norte,Guaraciaba do Norte,302603,Q2027331,,-40.75263318,-4.162451067
BR,CE,guaramiranga,Guaramiranga,Guaramiranga,302474,Q1761441,,-38.94063329,-4.262050919
BR,CE,hidrolandia,Hidrolândia,Hidrolandia,302475,Q2347636,,-40.40181712,-4.407999444
BR,CE,horizonte,Horizonte,Horizonte,302498,Q22059559,,-38.49423956,-4.093278
BR,CE,ibaretama,Ibaretama,Ibaretama,302566,Q2027727,,-38.82167831,-4.818651578
BR,CE,ibiapina,Ibiapina,Ibiapina,302515,Q2028027,,-40.89392902,-3.936131262
BR,CE,ibicuitinga,Ibicuitinga,Ibicuitinga,302525,Q1984853,,-38.64086305,-4.969166423
BR,CE,icapui,Icapuí,Icapui,302607,Q734002,,-37.3535631,-4.715549488
BR,CE,ico,Icó,Ico,302600,Q1807902,,-38.86308518,-6.403031252
BR,CE,iguatu,Iguatu,Iguatu,302558,Q931326,,-39.29990568,-6.36055472
BR,CE,independencia,Independência,Independencia,302582,Q284334,,-40.30934826,-5.3980281
BR,CE,ipaporanga,Ipaporanga,Ipaporanga,302561,Q2028044,,-40.75796634,-4.900629786
BR,CE,ipaumirim,Ipaumirim,Ipaumirim,302533,Q1807006,,-38.71590374,-6.78836126
BR,CE,ipu,Ipu,Ipu,302590,Q2026922,,-40.71872614,-4.313431685
BR,CE,ipueiras,Ipueiras,Ipueiras,302491,Q952731,,-40.71569651,-4.543785495
BR,CE,iracema,Iracema,Iracema,302492,Q2130759,,-38.30466166,-5.809842553
BR,CE,iraucuba,Irauçuba,Iraucuba,302507,Q2028660,,-39.79223812,-3.745418802
BR,CE,itaicaba,Itaiçaba,Itaicaba,302616,Q2006999,,-37.82162951,-4.683404712
BR,CE,itaitinga,Itaitinga,Itaitinga,302459,Q2013483,,-38.52640515,-3.970459016
BR,CE,itapaje,Itapajé,Itapaje,302632,Q2021022,,-39.58353324,-3.68567311
BR,CE,itapipoca,Itapipoca,Itapipoca,302579,Q1797985,,-39.58348158,-3.4994355
BR,CE,itapiuna,Itapiúna,Itapiuna,302490,Q684551,,-38.92067396,-4.554740175
BR,CE,itarema,Itarema,Itarema,302517,Q2013979,,-39.91567775,-2.923348
BR,CE,itatira,Itatira,Itatira,302522,Q2014416,,-39.61790402,-4.528922562
BR,CE,jaguaretama,Jaguaretama,Jaguaretama,302556,Q2027316,,-38.7625263,-5.610889563
BR,CE,jaguaribara,Jaguaribara,Jaguaribara,302562,Q2028838,,-38.4630973,-5.457502034
BR,CE,jaguaribe,Jaguaribe,Jaguaribe,302535,Q653619,,-38.62300505,-5.886459045
BR,CE,jaguaruana,Jaguaruana,Jaguaruana,302519,Q2013987,,-37.78239148,-4.839555168
BR,CE,jardim,Jardim,Jardim,302531,Q929116,,-39.28416446,-7.585536466
BR,CE,jati,Jati,Jati,302473,Q2028694,,-39.00513876,-7.692741595
BR,CE,jijoca-de-jericoacoara,Jijoca de Jericoacoara,Jijoca de Jericoacoara,302593,Q1367980,,-40.4387354,-2.899682709
BR,CE,juazeiro-do-norte,Juazeiro do Norte,Juazeiro do Norte,302487,Q817227,,-39.31699336,-7.210766
BR,CE,jucas,Jucás,Jucas,302544,Q2027711,,-39.52677624,-6.522549273
BR,CE,lavras-da-mangabeira,Lavras da Mangabeira,Lavras da Mangabeira,302611,Q664219,,-38.96727505,-6.754747977
BR,CE,limoeiro-do-norte,Limoeiro do Norte,Limoeiro do Norte,302543,Q1795215,,-38.09909487,-5.15023902
BR,CE,madalena,Madalena,Madalena,302581,Q1963649,,-39.57578868,-4.852434177
BR,CE,maracanau,Maracanaú,Maracanau,302620,Q1794732,,-38.62441865,-3.876964451
BR,CE,maranguape,Maranguape,Maranguape,302629,Q1795232,,-38.68585125,-3.89186946
BR,CE,marco,Marco,Marco,302622,Q22059549,,-40.15164364,-3.120707025
BR,CE,martinopole,Martinópole,Martinopole,302567,Q2028218,,-40.69935518,-3.225012227
BR,CE,massape,Massapê,Massape,302528,Q2028110,,-40.34213486,-3.523870584
BR,CE,mauriti,Mauriti,Mauriti,302504,Q1993771,,-38.77279544,-7.387398
BR,CE,meruoca,Meruoca,Meruoca,302503,Q2028094,,-40.45088096,-3.539006662
BR,CE,milagres,Milagres,Milagres,302455,Q2092809,,-38.94315677,-7.310427797
BR,CE,milha,Milhã,Milha,302596,Q2028613,,-39.20357418,-5.679564101
BR,CE,miraima,Miraíma,Miraima,302502,Q1966370,,-39.97006488,-3.568599907
BR,CE,missao-velha,Missão Velha,Missao Velha,302559,Q2027847,,-39.14519771,-7.243231514
BR,CE,mombaca,Mombaça,Mombaca,302555,Q1920600,,-39.62440525,-5.74700454
BR,CE,monsenhor-tabosa,Monsenhor Tabosa,Monsenhor Tabosa,302532,Q526892,,-40.07006746,-4.783091292
BR,CE,morada-nova,Morada Nova,Morada Nova,302514,Q1807869,,-38.36490735,-5.096952
BR,CE,moraujo,Moraújo,Moraujo,302604,Q2027657,,-40.68359893,-3.466363274
BR,CE,morrinhos,Morrinhos,Morrinhos,302468,Q22059544,,-40.12417889,-3.228830534
BR,CE,mucambo,Mucambo,Mucambo,302618,Q2027361,,-40.74528047,-3.90602998
BR,CE,mulungu,Mulungu,Mulungu,302480,Q22059542,,-38.99306592,-4.29952832
BR,CE,nova-olinda,Nova Olinda,Nova Olinda,302493,Q1913711,,-39.67948547,-7.084102811
BR,CE,nova-russas,Nova Russas,Nova Russas,302586,Q1824152,,-40.56530335,-4.70680835
BR,CE,novo-oriente,Novo Oriente,Novo Oriente,302513,Q22059540,,-40.77476727,-5.533864836
BR,CE,ocara,Ocara,Ocara,302485,Q2028371,,-38.59853798,-4.485066545
BR,CE,oros,Orós,Oros,302564,Q526215,,-38.91359598,-6.242798784
BR,CE,pacajus,Pacajus,Pacajus,302462,Q2021230,,-38.46702226,-4.17054051
BR,CE,pacatuba,Pacatuba,Pacatuba,302547,Q2026817,,-38.61829931,-3.986120022
BR,CE,pacoti,Pacoti,Pacoti,302589,Q2013474,,-38.92588894,-4.224765433
BR,CE,pacuja,Pacujá,Pacuja,302546,Q2028383,,-40.69673611,-3.978394386
BR,CE,palhano,Palhano,Palhano,302506,Q2028077,,-37.96623516,-4.743945077
BR,CE,palmacia,Palmácia,Palmacia,302631,Q2013452,,-38.84502907,-4.148981775
BR,CE,paracuru,Paracuru,Paracuru,302512,Q542347,,-39.02954534,-3.411635009
BR,CE,paraipaba,Paraipaba,Paraipaba,302587,Q2013436,,-39.14811553,-3.436196728
BR,CE,parambu,Parambu,Parambu,302477,Q770577,,-40.69420724,-6.210336002
BR,CE,paramoti,Paramoti,Paramoti,302595,Q2028069,,-39.2394665,-4.097432332
BR,CE,pedra-branca,Pedra Branca,Pedra Branca,302549,Q2028317,,-39.71393764,-5.4546855
BR,CE,penaforte,Penaforte,Penaforte,302602,Q2028236,,-39.07412752,-7.829914612
BR,CE,pentecoste,Pentecoste,Pentecoste,302516,Q1815210,,-39.26700873,-3.796266736
BR,CE,pereiro,Pereiro,Pereiro,302597,Q2028227,,-38.45913604,-6.045076902
BR,CE,pindoretama,Pindoretama,Pindoretama,302539,Q948079,,-38.30008798,-4.027803993
BR,CE,piquet-carneiro,Piquet Carneiro,Piquet Carneiro,302628,Q2028684,,-39.41940626,-5.80856956
BR,CE,pires-ferreira,Pires Ferreira,Pires Ferreira,302460,Q2027682,,-40.64654125,-4.242154143
BR,CE,poranga,Poranga,Poranga,302591,Q2027595,,-40.92637951,-4.743950732
BR,CE,porteiras,Porteiras,Porteiras,302537,Q2027628,,-39.11533146,-7.535746442
BR,CE,potengi,Potengi,Potengi,302534,Q1112312,,-40.03213254,-7.09017947
BR,CE,potiretama,Potiretama,Potiretama,302529,Q2028629,,-38.15791785,-5.721667904
BR,CE,quiterianopolis,Quiterianópolis,Quiterianopolis,302571,Q2026870,,-40.70448885,-5.847009229
BR,CE,quixada,Quixadá,Quixada,302476,Q2013932,,-39.01174468,-4.9637
BR,CE,quixelo,Quixelô,Quixelo,302577,Q1808458,,-39.20229437,-6.2512119
BR,CE,quixeramobim,Quixeramobim,Quixeramobim,302542,Q999088,,-39.29435423,-5.198404837
BR,CE,quixere,Quixeré,Quixere,302608,Q2028061,,-37.99052223,-5.068728954
BR,CE,redencao,Redenção,Redencao,302578,Q2266648,,-38.72957075,-4.22295815
BR,CE,reriutaba,Reriutaba,Reriutaba,302570,Q629638,,-40.584612,-4.141567601
BR,CE,russas,Russas,Russas,302565,Q1806654,,-37.9754313,-4.939737815
BR,CE,saboeiro,Saboeiro,Saboeiro,302585,Q2021151,,-39.9045807,-6.536433353
BR,CE,salitre,Salitre,Salitre,302479,Q2028051,,-40.46475206,-7.284528685
BR,CE,santana-do-acarau,Santana do Acaraú,Santana do Acarau,302536,Q2027584,,-40.20946286,-3.459775342
BR,CE,santana-do-cariri,Santana do Cariri,Santana do Cariri,302568,Q2068856,,-39.73797978,-7.180897783
BR,CE,santa-quiteria,Santa Quitéria,Santa Quiteria,302634,Q2027609,,-40.15350781,-4.3332705
BR,CE,sao-benedito,São Benedito,Sao Benedito,302617,Q2068831,,-40.86448988,-4.04472699
BR,CE,sao-goncalo-do-amarante,São Gonçalo do Amarante,Sao Goncalo do Amarante,302636,Q1999934,,-38.97207587,-3.6056325
BR,CE,sao-joao-do-jaguaribe,São João do Jaguaribe,Sao Joao do Jaguaribe,302554,Q2039779,,-38.2719407,-5.268630551
BR,CE,sao-luis-do-curu,São Luís do Curu,Sao Luis do Curu,302572,Q2039586,,-39.24160619,-3.673009253
BR,CE,senador-pompeu,Senador Pompeu,Senador Pompeu,302488,Q1828350,,-39.37532533,-5.589343752
BR,CE,senador-sa,Senador Sá,Senador Sa,302527,Q1983626,,-40.463792,-3.351789628
BR,CE,sobral,Sobral,Sobral,302610,Q1815899,,-40.34866803,-3.688037684
BR,CE,solonopole,Solonópole,Solonopole,302457,Q975946,,-39.00822491,-5.726351291
BR,CE,tabuleiro-do-norte,Tabuleiro do Norte,Tabuleiro do Norte,302550,Q2059758,,-38.12973713,-5.24380387
BR,CE,tamboril,Tamboril,Tamboril,302557,Q2068962,,-40.31906851,-4.833928583
BR,CE,tarrafas,Tarrafas,Tarrafas,302465,Q1900852,,-39.75849419,-6.682590315
BR,CE,taua,Tauá,Taua,302466,Q2021015,,-40.29262466,-6.00299894
BR,CE,tejucuoca,Tejuçuoca,Tejucuoca,302621,Q2039497,,-39.57682636,-3.989711809
BR,CE,tiangua,Tianguá,Tiangua,302574,Q965707,,-40.99170562,-3.722674
BR,CE,trairi,Trairi,Trairi,302541,Q1807039,,-39.27223187,-3.264420169
BR,CE,tururu,Tururu,Tururu,302545,Q1814522,,-39.43436354,-3.595595236
BR,CE,ubajara,Ubajara,Ubajara,302575,Q1821314,,-40.90714393,-3.848491435
BR,CE,umari,Umari,Umari,302553,Q2068917,,-38.70132572,-6.647244375
BR,CE,umirim,Umirim,Umirim,302461,Q778286,,-39.3423844,-3.675561898
BR,CE,uruburetama,Uruburetama,Uruburetama,302511,Q2021056,,-39.50817807,-3.623016834
BR,CE,uruoca,Uruoca,Uruoca,302614,Q2013443,,-40.56116303,-3.31323066
BR,CE,varjota,Varjota,Varjota,302526,Q1939222,,-40.47899327,-4.182822283
BR,CE,varzea-alegre,Várzea Alegre,Varzea Alegre,302598,Q2068823,,-39.298933,-6.791845856
BR,CE,vicosa-do-ceara,Viçosa do Ceará,Vicosa do Ceara,302637,Q2021075,,-41.09162908,-3.566012753
BR,RN,acari,Acari,Acari,301076,Q2008611,,-36.64373887,-6.442085089
BR,RN,acu,Açu,Açu,301109,Q1788873,,-36.91792322,-5.571945999
BR,RN,afonso-bezerra,Afonso Bezerra,Afonso Bezerra,301186,Q1788960,,-36.50914823,-5.498734268
BR,RN,agua-nova,Água Nova,Agua Nova,301201,Q1786703,,-38.29082495,-6.204716719
BR,RN,alexandria,Alexandria,Alexandria,301217,Q2099372,,-38.01928889,-6.417136338
BR,RN,almino-afonso,Almino Afonso,Almino Afonso,301188,Q1802697,,-37.7631253,-6.157420693
BR,RN,alto-do-rodrigues,Alto do Rodrigues,Alto do Rodrigues,301199,Q1787554,,-36.75949261,-5.293807788
BR,RN,angicos,Angicos,Angicos,301122,Q1989884,,-36.60543287,-5.660365329
BR,RN,antonio-martins,Antônio Martins,Antonio Martins,301142,Q1788470,,-37.88573457,-6.216004455
BR,RN,apodi,Apodi,Apodi,301112,Q2008084,,-37.79778448,-5.663769819
BR,RN,areia-branca,Areia Branca,Areia Branca,301097,Q2072691,,-37.13127172,-4.952897631
BR,RN,arez,Arez,Arez,301152,Q928712,,-35.1606361,-6.193712275
BR,RN,campo-grande,Campo Grande,Campo Grande,301088,Q1802671,,-37.30887256,-5.858114424
BR,RN,baia-formosa,Baía Formosa,Baia Formosa,301192,Q282133,,-35.00903618,-6.369992304
BR,RN,barauna,Baraúna,Barauna,301189,Q1970827,,-37.6181802,-5.076618105
BR,RN,barcelona,Barcelona,Barcelona,301130,Q2011622,,-35.92679453,-5.948131848
BR,RN,bento-fernandes,Bento Fernandes,Bento Fernandes,301075,Q1802840,,-35.82169889,-5.692383318
BR,RN,bodo,Bodó,Bodo,301127,Q1802663,,-36.4138377,-5.98804525
BR,RN,bom-jesus,Bom Jesus,Bom Jesus,301131,Q2011643,,-35.58880329,-5.986318852
BR,RN,brejinho,Brejinho,Brejinho,301086,Q2088956,,-35.35735405,-6.192579059
BR,RN,caicara-do-norte,Caiçara do Norte,Caicara do Norte,301074,Q1787018,,-36.05585715,-5.062994409
BR,RN,caicara-do-rio-do-vento,Caiçara do Rio do Vento,Caicara do Rio do Vento,301070,Q771693,,-35.99979041,-5.759087143
BR,RN,caico,Caicó,Caico,301058,Q1751350,,-37.09648877,-6.459138831
BR,RN,campo-redondo,Campo Redondo,Campo Redondo,301125,Q1802775,,-36.18250457,-6.243383053
BR,RN,canguaretama,Canguaretama,Canguaretama,301167,Q1787055,,-35.12853966,-6.374925216
BR,RN,caraubas,Caraúbas,Caraubas,301094,Q2078721,,-37.5537022,-5.791176103
BR,RN,carnauba-dos-dantas,Carnaúba dos Dantas,Carnauba dos Dantas,301184,Q1787511,,-36.59525192,-6.560732517
BR,RN,carnaubais,Carnaubais,Carnaubais,301134,Q1788271,,-36.83464236,-5.339785394
BR,RN,ceara-mirim,Ceará-Mirim,Ceara-Mirim,301124,Q1759622,,-35.42448693,-5.640983592
BR,RN,cerro-cora,Cerro Corá,Cerro Cora,301108,Q1802687,,-36.34574144,-6.034827193
BR,RN,coronel-ezequiel,Coronel Ezequiel,Coronel Ezequiel,301123,Q1802414,,-36.21477104,-6.38340239
BR,RN,coronel-joao-pessoa,Coronel João Pessoa,Coronel Joao Pessoa,301105,Q1802324,,-38.44025816,-6.260112211
BR,RN,cruzeta,Cruzeta,Cruzeta,301092,Q1787064,,-36.79170532,-6.413176407
BR,RN,currais-novos,Currais Novos,Currais Novos,301212,Q1759405,,-36.51621922,-6.264672219
BR,RN,doutor-severiano,Doutor Severiano,Doutor Severiano,301219,Q598179,,-38.37368308,-6.093687371
BR,RN,parnamirim,Parnamirim,Parnamirim,301117,Q986261,,-35.25920907,-5.910369758
BR,RN,encanto,Encanto,Encanto,301139,Q2089248,,-38.30487899,-6.111134201
BR,RN,equador,Equador,Equador,301102,Q2002138,,-36.71641243,-6.945842749
