country_code,region_code,name_slug,name,name_normalized,osm_relation_id,wikidata_id,is_capital,lon,lat,ibge_uf_id,ibge_microregion_id,ibge_municipality_id
br,ro,alta-floresta-doeste,Alta Floresta d'Oeste,Alta Floresta d'Oeste,325842,Q1761456,,-61.9998239,-11.9355403,11,11006,1100015
br,ro,ariquemes,Ariquemes,Ariquemes,325888,Q1646975,,-63.03326928,-9.908462867,11,11003,1100023
br,ro,cabixi,Cabixi,Cabixi,325882,Q940433,,-60.54431358,-13.49976346,11,11008,1100031
br,ro,cacoal,Cacoal,Cacoal,325872,Q1761637,,-61.44294421,-11.43386503,11,11006,1100049
br,ro,cerejeiras,Cerejeiras,Cerejeiras,325883,Q1803210,,-60.81842616,-13.19503303,11,11008,1100056
br,ro,colorado-do-oeste,Colorado do Oeste,Colorado do Oeste,325860,Q1785819,,-60.55506746,-13.13056384,11,11008,1100064
br,ro,corumbiara,Corumbiara,Corumbiara,325874,Q927349,,-60.94870117,-12.99752024,11,11008,1100072
br,ro,costa-marques,Costa Marques,Costa Marques,325844,Q656758,,-64.23165394,-12.43601388,11,11002,1100080
br,ro,espigao-doeste,Espigão d'Oeste,Espigao d'Oeste,325845,Q616498,,-61.02017311,-11.52855463,11,11006,1100098
br,ro,guajara-mirim,Guajará-Mirim,Guajara-Mirim,325856,Q983810,,-65.32395182,-10.77388374,11,11002,1100106
br,ro,jaru,Jaru,Jaru,325864,Q988755,,-62.47623071,-10.43594877,11,11004,1100114
br,ro,ji-parana,Ji-Paraná,Ji-Parana,325879,Q983815,,-61.94509458,-10.88205132,11,11004,1100122
br,ro,machadinho-doeste,Machadinho d'Oeste,Machadinho d'Oeste,325881,Q1786440,,-61.99959257,-9.42556248,11,11003,1100130
br,ro,nova-brasilandia-doeste,Nova Brasilândia d'Oeste,Nova Brasilandia d'Oeste,325857,Q2014329,,-62.30823016,-11.72132541,11,11005,1100148
br,ro,ouro-preto-do-oeste,Ouro Preto do Oeste,Ouro Preto do Oeste,325854,Q1803223,,-62.26105519,-10.7235739,11,11004,1100155
br,ro,pimenta-bueno,Pimenta Bueno,Pimenta Bueno,325843,Q1803175,,-61.18366567,-11.67753699,11,11007,1100189
br,ro,porto-velho,Porto Velho,Porto Velho,325855,Q172512,TRUE,-63.83144565,-8.76889179,11,11001,1100205
br,ro,presidente-medici,Presidente Médici,Presidente Medici,325892,Q1871362,,-61.90943868,-11.17320502,11,11004,1100254
br,ro,rio-crespo,Rio Crespo,Rio Crespo,325848,Q1786495,,-62.90001037,-9.70553671,11,11003,1100262
br,ro,rolim-de-moura,Rolim de Moura,Rolim de Moura,325876,Q1784242,,-61.78578094,-11.72225891,11,11006,1100288
br,ro,santa-luzia-doeste,Santa Luzia d'Oeste,Santa Luzia d'Oeste,325862,Q1802100,,-61.77330546,-11.90842333,11,11006,1100296
br,ro,vilhena,Vilhena,Vilhena,325887,Q1749958,,-60.13858387,-12.74137347,11,11007,1100304
br,ro,sao-miguel-do-guapore,São Miguel do Guaporé,Sao Miguel do Guapore,325863,Q1807456,,-62.72006348,-11.69948974,11,11005,1100320
br,ro,nova-mamore,Nova Mamoré,Nova Mamore,325849,Q993507,,-65.32914902,-10.41177129,11,11001,1100338
br,ro,alvorada-doeste,Alvorada d'Oeste,Alvorada d'Oeste,325853,Q1786028,,-62.27727487,-11.34413002,11,11005,1100346
br,ro,alto-alegre-dos-parecis,Alto Alegre dos Parecis,Alto Alegre dos Parecis,325858,Q1802050,,-61.85307717,-12.13177722,11,11006,1100379
br,ro,alto-paraiso,Alto Paraíso,Alto Paraiso,325870,Q607036,,-63.31762943,-9.716666738,11,11003,1100403
br,ro,buritis,Buritis,Buritis,325859,Q1921800,,-63.82967879,-10.20980541,11,11001,1100452
br,ro,novo-horizonte-do-oeste,Novo Horizonte do Oeste,Novo Horizonte do Oeste,325865,Q2013150,,-61.99438766,-11.70974292,11,11006,1100502
br,ro,cacaulandia,Cacaulândia,Cacaulandia,325847,Q1750177,,-62.90318993,-10.33887284,11,11003,1100601
br,ro,campo-novo-de-rondonia,Campo Novo de Rondônia,Campo Novo de Rondonia,325871,Q2089179,,-63.62499143,-10.56841647,11,11001,1100700
br,ro,candeias-do-jamari,Candeias do Jamari,Candeias do Jamari,325890,Q2078405,,-63.70002007,-8.785020704,11,11001,1100809
br,ro,castanheiras,Castanheiras,Castanheiras,325891,Q1785860,,-61.9491612,-11.42684223,11,11006,1100908
br,ro,chupinguaia,Chupinguaia,Chupinguaia,325852,Q735454,,-60.90184775,-12.55684076,11,11007,1100924
br,ro,cujubim,Cujubim,Cujubim,325880,Q1803135,,-62.58717453,-9.378193399,11,11001,1100940
br,ro,governador-jorge-teixeira,Governador Jorge Teixeira,Governador Jorge Teixeira,325894,Q964725,,-62.74045764,-10.61207177,11,11004,1101005
br,ro,itapua-do-oeste,Itapuã do Oeste,Itapua do Oeste,325893,Q1802170,,-63.18233702,-9.191871675,11,11001,1101104
br,ro,ministro-andreazza,Ministro Andreazza,Ministro Andreazza,325889,Q775204,,-61.51892193,-11.19623798,11,11006,1101203
br,ro,mirante-da-serra,Mirante da Serra,Mirante da Serra,325875,Q2079711,,-62.6694271,-11.04560929,11,11004,1101302
br,ro,monte-negro,Monte Negro,Monte Negro,325873,Q2014320,,-63.29555917,-10.26309776,11,11003,1101401
br,ro,nova-uniao,Nova União,Nova Uniao,325846,Q2364475,,-62.5550894,-10.91553204,11,11004,1101435
br,ro,parecis,Parecis,Parecis,325850,Q1803114,,-61.59799797,-12.17982705,11,11007,1101450
br,ro,pimenteiras-do-oeste,Pimenteiras do Oeste,Pimenteiras do Oeste,325885,Q1803105,,-61.044379,-13.476562,11,11008,1101468
br,ro,primavera-de-rondonia,Primavera de Rondônia,Primavera de Rondonia,325878,Q1802123,,-61.31654624,-11.82570695,11,11007,1101476
br,ro,sao-felipe-doeste,São Felipe d'Oeste,Sao Felipe d'Oeste,325877,Q1803269,,-61.51250811,-11.91438935,11,11007,1101484
br,ro,sao-francisco-do-guapore,São Francisco do Guaporé,Sao Francisco do Guapore,325851,Q1802095,,-63.57086471,-12.06379841,11,11002,1101492
br,ro,seringueiras,Seringueiras,Seringueiras,325867,Q727950,,-63.038761,-11.76711664,11,11005,1101500
br,ro,teixeiropolis,Teixeirópolis,Teixeiropolis,325861,Q1802088,,-62.25592225,-10.93216929,11,11004,1101559
br,ro,theobroma,Theobroma,Theobroma,325886,Q647208,,-62.34514553,-10.24873055,11,11004,1101609
br,ro,urupa,Urupá,Urupa,325884,Q2089326,,-62.37063245,-11.12854528,11,11004,1101708
br,ro,vale-do-anari,Vale do Anari,Vale do Anari,325868,Q1807445,,-62.17682344,-9.851392708,11,11003,1101757
br,ro,vale-do-paraiso,Vale do Paraíso,Vale do Paraiso,325869,Q2013187,,-62.13439036,-10.43105268,11,11004,1101807
br,ac,acrelandia,Acrelândia,Acrelandia,326273,Q953086,,-67.05231658,-10.07379389,12,12004,1200013
br,ac,assis-brasil,Assis Brasil,Assis Brasil,326269,Q1754403,,-69.56345917,-10.94286568,12,12005,1200054
br,ac,brasileia,Brasiléia,Brasileia,326270,Q899406,,-68.74794343,-11.01641102,12,12005,1200104
br,ac,bujari,Bujari,Bujari,326259,Q1754408,,-67.95185928,-9.820019627,12,12004,1200138
br,ac,capixaba,Capixaba,Capixaba,326268,Q1800737,,-67.67350797,-10.56976771,12,12004,1200179
br,ac,cruzeiro-do-sul,Cruzeiro do Sul,Cruzeiro do Sul,326274,Q941136,,-72.67253132,-7.630690005,12,12001,1200203
br,ac,epitaciolandia,Epitaciolândia,Epitaciolandia,326256,Q1755395,,-68.74486807,-11.02823983,12,12005,1200252
br,ac,feijo,Feijó,Feijo,326258,Q1994833,,-70.35398361,-8.16024753,12,12002,1200302
br,ac,jordao,Jordão,Jordao,326252,Q1800793,,-71.95087512,-9.19335786,12,12002,1200328
br,ac,mancio-lima,Mâncio Lima,Mancio Lima,326262,Q1772621,,-72.91650103,-7.593222594,12,12001,1200336
br,ac,manoel-urbano,Manoel Urbano,Manoel Urbano,326271,Q1772688,,-69.25994458,-8.836317737,12,12003,1200344
br,ac,marechal-thaumaturgo,Marechal Thaumaturgo,Marechal Thaumaturgo,326257,Q1772613,,-72.79026591,-8.953591123,12,12001,1200351
br,ac,placido-de-castro,Plácido de Castro,Placido de Castro,326267,Q964075,,-67.18826009,-10.33513328,12,12004,1200385
br,ac,porto-walter,Porto Walter,Porto Walter,326264,Q1772588,,-72.74233396,-8.266666363,12,12001,1200393
br,ac,rio-branco,Rio Branco,Rio Branco,326253,Q171612,TRUE,-67.8105287,-9.978298753,12,12004,1200401
br,ac,rodrigues-alves,Rodrigues Alves,Rodrigues Alves,326254,Q1800776,,-72.64785491,-7.733602034,12,12001,1200427
br,ac,santa-rosa-do-purus,Santa Rosa do Purus,Santa Rosa do Purus,326272,Q1772719,,-70.48649689,-9.443406537,12,12003,1200435
br,ac,senador-guiomard,Senador Guiomard,Senador Guiomard,326261,Q771763,,-67.74317236,-10.14817359,12,12004,1200450
br,ac,sena-madureira,Sena Madureira,Sena Madureira,326263,Q1754389,,-68.65568406,-9.065339505,12,12003,1200500
br,ac,tarauaca,Tarauacá,Tarauaca,326255,Q979910,,-70.75550106,-8.155668592,12,12002,1200609
br,ac,xapuri,Xapuri,Xapuri,326260,Q1012531,,-68.50629481,-10.65207194,12,12005,1200708
br,ac,porto-acre,Porto Acre,Porto Acre,326265,Q1772602,,-67.54059008,-9.600858231,12,12004,1200807
br,am,alvaraes,Alvarães,Alvaraes,332499,Q1808573,,-64.81353468,-3.216583769,13,13005,1300029
br,am,amatura,Amaturá,Amatura,332512,Q1772609,,-68.20961464,-3.366805188,13,13003,1300060
br,am,anama,Anamã,Anama,332497,Q974915,,-61.40590348,-3.576370427,13,13006,1300086
br,am,anori,Anori,Anori,332474,Q931090,,-61.65895538,-3.745385586,13,13006,1300102
br,am,apui,Apuí,Apui,332502,Q1112525,,-59.8856661,-7.197870152,13,13013,1300144
br,am,atalaia-do-norte,Atalaia do Norte,Atalaia do Norte,332473,Q1793319,,-70.18798928,-4.36615749,13,13003,1300201
br,am,autazes,Autazes,Autazes,332503,Q1772695,,-59.13356709,-3.578663642,13,13007,1300300
br,am,barcelos,Barcelos,Barcelos,332478,Q807939,,-62.92566966,-0.9728010525,13,13001,1300409
br,am,barreirinha,Barreirinha,Barreirinha,332522,Q1772565,,-57.06775049,-2.798149837,13,13010,1300508
br,am,benjamin-constant,Benjamin Constant,Benjamin Constant,332518,Q1767926,,-70.02734843,-4.374989019,13,13003,1300607
br,am,beruri,Beruri,Beruri,332513,Q584172,,-61.37157089,-3.89451341,13,13006,1300631
br,am,boa-vista-do-ramos,Boa Vista do Ramos,Boa Vista do Ramos,332464,Q940548,,-57.58770735,-2.971726532,13,13010,1300680
br,am,boca-do-acre,Boca do Acre,Boca do Acre,332492,Q1793334,,-67.39957776,-8.751243196,13,13011,1300706
br,am,borba,Borba,Borba,332495,Q2089660,,-59.59455902,-4.390619892,13,13013,1300805
br,am,caapiranga,Caapiranga,Caapiranga,332501,Q945469,,-61.21133413,-3.330093392,13,13006,1300839
br,am,canutama,Canutama,Canutama,332480,Q1807050,,-64.39423082,-6.529106076,13,13012,1300904
br,am,carauari,Carauari,Carauari,332496,Q1794236,,-66.89663528,-4.881665904,13,13004,1301001
br,am,careiro,Careiro,Careiro,332515,Q1751325,,-60.36380984,-3.82244727,13,13007,1301100
br,am,careiro-da-varzea,Careiro da Várzea,Careiro da Varzea,332462,Q1807045,,-59.82631406,-3.197396595,13,13007,1301159
br,am,coari,Coari,Coari,332521,Q645204,,-63.14218398,-4.084219159,13,13006,1301209
br,am,codajas,Codajás,Codajas,332491,Q1762074,,-62.06342966,-3.843045933,13,13006,1301308
br,am,eirunepe,Eirunepé,Eirunepe,332511,Q1646910,,-69.86629026,-6.667352567,13,13004,1301407
br,am,envira,Envira,Envira,332488,Q1750090,,-70.03041254,-7.439817544,13,13004,1301506
br,am,fonte-boa,Fonte Boa,Fonte Boa,332510,Q1793768,,-66.09650299,-2.512270685,13,13003,1301605
br,am,guajara,Guajará,Guajara,332508,Q1808440,,-72.58243054,-7.547774415,13,13004,1301654
br,am,humaita,Humaitá,Humaita,332523,Q1025760,,-63.02669802,-7.512224951,13,13013,1301704
br,am,ipixuna,Ipixuna,Ipixuna,332520,Q1794374,,-71.69441806,-7.050980114,13,13004,1301803
br,am,iranduba,Iranduba,Iranduba,332514,Q1761947,,-60.19338817,-3.281053878,13,13007,1301852
br,am,itacoatiara,Itacoatiara,Itacoatiara,332524,Q1750426,,-58.44017544,-3.140378804,13,13009,1301902
br,am,itamarati,Itamarati,Itamarati,332519,Q1102558,,-68.24791744,-6.437799349,13,13004,1301951
br,am,itapiranga,Itapiranga,Itapiranga,332516,Q1808448,,-58.03454588,-2.741842752,13,13009,1302009
br,am,japura,Japurá,Japura,332494,Q1757955,,-66.99690349,-1.880844859,13,13002,1302108
br,am,jurua,Juruá,Jurua,332490,Q1008285,,-66.06304193,-3.474889599,13,13004,1302207
br,am,jutai,Jutaí,Jutai,332506,Q684641,,-66.77132755,-2.744646447,13,13003,1302306
br,am,labrea,Lábrea,Labrea,332504,Q386631,,-64.79477303,-7.261946553,13,13012,1302405
br,am,manacapuru,Manacapuru,Manacapuru,332469,Q983526,,-60.62058945,-3.298278036,13,13007,1302504
br,am,manaquiri,Manaquiri,Manaquiri,332467,Q1807976,,-60.45888131,-3.429079669,13,13007,1302553
br,am,manaus,Manaus,Manaus,332493,Q40236,TRUE,-60.02333518,-3.134691491,13,13007,1302603
br,am,manicore,Manicoré,Manicore,332463,Q43490,,-61.29924841,-5.813205261,13,13013,1302702
br,am,maraa,Maraã,Maraa,332479,Q1763270,,-65.5742837,-1.866436877,13,13002,1302801
br,am,maues,Maués,Maues,332475,Q1808581,,-57.71503439,-3.386427926,13,13010,1302900
br,am,nhamunda,Nhamundá,Nhamunda,332482,Q1793306,,-56.71676991,-2.188983767,13,13010,1303007
br,am,nova-olinda-do-norte,Nova Olinda do Norte,Nova Olinda do Norte,332481,Q1772535,,-59.09307403,-3.887592832,13,13009,1303106
br,am,novo-airao,Novo Airão,Novo Airao,332468,Q1750332,,-60.94881071,-2.623432459,13,13001,1303205
br,am,novo-aripuana,Novo Aripuanã,Novo Aripuana,332465,Q1793549,,-60.37704567,-5.122669314,13,13013,1303304
br,am,parintins,Parintins,Parintins,332517,Q926713,,-56.73629215,-2.627052586,13,13010,1303403
br,am,pauini,Pauini,Pauini,332509,Q1793494,,-67.00209749,-7.714043644,13,13011,1303502
br,am,presidente-figueiredo,Presidente Figueiredo,Presidente Figueiredo,332498,Q655097,,-60.02564683,-2.058429085,13,13008,1303536
br,am,rio-preto-da-eva,Rio Preto da Eva,Rio Preto da Eva,332500,Q1793560,,-59.70473809,-2.693301542,13,13008,1303569
br,am,santa-isabel-do-rio-negro,Santa Isabel do Rio Negro,Santa Isabel do Rio Negro,332484,Q1754543,,-65.02002264,-0.4166948319,13,13001,1303601
br,am,santo-antonio-do-ica,Santo Antônio do Içá,Santo Antonio do Ica,332505,Q970224,,-67.94648514,-3.107486309,13,13003,1303700
br,am,sao-gabriel-da-cachoeira,São Gabriel da Cachoeira,Sao Gabriel da Cachoeira,332477,Q694840,,-67.0836429,-0.1364627881,13,13001,1303809
br,am,sao-paulo-de-olivenca,São Paulo de Olivença,Sao Paulo de Olivenca,332507,Q1794983,,-68.94485349,-3.466509624,13,13003,1303908
br,am,sao-sebastiao-do-uatuma,São Sebastião do Uatumã,Sao Sebastiao do Uatuma,332483,Q1793440,,-57.87034636,-2.57015258,13,13010,1303957
br,am,silves,Silves,Silves,332471,Q2089673,,-58.21480086,-2.83642743,13,13009,1304005
br,am,tabatinga,Tabatinga,Tabatinga,332466,Q22060342,,-69.94624438,-4.231883676,13,13003,1304062
br,am,tapaua,Tapauá,Tapaua,332485,Q1794336,,-63.18709487,-5.624223518,13,13012,1304104
br,am,tefe,Tefé,Tefe,332487,Q975545,,-64.70841966,-3.348372494,13,13005,1304203
br,am,tonantins,Tonantins,Tonantins,332486,Q1793355,,-67.77648228,-2.86109125,13,13003,1304237
br,am,uarini,Uarini,Uarini,332489,Q517607,,-65.15534564,-2.983609243,13,13005,1304260
br,am,urucara,Urucará,Urucara,332470,Q1816370,,-57.75982817,-2.536611672,13,13010,1304302
br,am,urucurituba,Urucurituba,Urucurituba,332472,Q1793833,,-58.15964104,-3.134633116,13,13009,1304401
br,rr,amajari,Amajari,Amajari,326296,Q1646965,,-61.42059017,3.652118445,14,14001,1400027
br,rr,alto-alegre,Alto Alegre,Alto Alegre,326291,Q1763240,,-61.31402239,2.993822948,14,14001,1400050
br,rr,boa-vista,Boa Vista,Boa Vista,326286,Q181056,TRUE,-60.67053267,2.816681919,14,14001,1400100
br,rr,bonfim,Bonfim,Bonfim,326289,Q1763254,,-59.87800663,3.350288619,14,14002,1400159
br,rr,canta,Cantá,Canta,326284,Q1646914,,-60.60206285,2.607666398,14,14002,1400175
br,rr,caracarai,Caracaraí,Caracarai,326293,Q772563,,-61.14917687,1.803871247,14,14003,1400209
br,rr,caroebe,Caroebe,Caroebe,326290,Q748315,,-59.69481007,0.8726745072,14,14004,1400233
br,rr,iracema,Iracema,Iracema,326294,Q1786374,,-61.05225859,2.168214765,14,14003,1400282
br,rr,mucajai,Mucajaí,Mucajai,326297,Q1637423,,-60.91151853,2.479772235,14,14003,1400308
br,rr,normandia,Normandia,Normandia,326282,Q1750038,,-59.63520628,3.882978285,14,14002,1400407
br,rr,pacaraima,Pacaraima,Pacaraima,326283,Q1647045,,-61.14730635,4.47525934,14,14001,1400456
br,rr,rorainopolis,Rorainópolis,Rorainopolis,326292,Q1646932,,-60.42506049,0.9371953936,14,14004,1400472
br,rr,sao-joao-da-baliza,São João da Baliza,Sao Joao da Baliza,326285,Q1646960,,-59.90604435,0.9471574275,14,14004,1400506
br,rr,sao-luiz,São Luiz,Sao Luiz,326295,Q1751337,,-60.02826677,1.018111627,14,14004,1400605
br,rr,uiramuta,Uiramutã,Uiramuta,326288,Q1637434,,-60.19571615,4.585440388,14,14002,1400704
br,pa,abaetetuba,Abaetetuba,Abaetetuba,185660,Q1615298,,-48.88440382,-1.723469863,15,15011,1500107
br,pa,abel-figueiredo,Abel Figueiredo,Abel Figueiredo,185560,Q942803,,-48.39676213,-4.951390896,15,15017,1500131
br,pa,acara,Acará,Acara,185641,Q1804839,,-48.20045643,-1.9634365,15,15012,1500206
br,pa,afua,Afuá,Afua,185616,Q389536,,-50.39142759,-0.1591716938,15,15005,1500305
br,pa,agua-azul-do-norte,Água Azul do Norte,Agua Azul do Norte,185622,Q1804899,,-50.48527451,-6.804948867,15,15019,1500347
br,pa,alenquer,Alenquer,Alenquer,185674,Q2289869,,-54.74086235,-1.951397505,15,15002,1500404
br,pa,almeirim,Almeirim,Almeirim,185668,Q22067014,,-52.57683509,-1.527338803,15,15003,1500503
br,pa,altamira,Altamira,Altamira,185554,Q434285,,-52.21437631,-3.20565951,15,15015,1500602
br,pa,anajas,Anajás,Anajas,185578,Q1804346,,-49.94500104,-0.984451394,15,15005,1500701
br,pa,ananindeua,Ananindeua,Ananindeua,185610,Q485887,,-48.37206665,-1.368713568,15,15007,1500800
br,pa,anapu,Anapu,Anapu,185572,Q486142,,-51.2016218,-3.476104635,15,15015,1500859
br,pa,augusto-correa,Augusto Corrêa,Augusto Correa,90129,Q1804338,,-46.64164579,-1.02292101,15,15010,1500909
br,pa,aurora-do-para,Aurora do Pará,Aurora do Para,185553,Q2008798,,-47.5561746,-2.129376013,15,15013,1500958
br,pa,aveiro,Aveiro,Aveiro,185570,Q790342,,-55.33073439,-3.605595259,15,15014,1501006
br,pa,bagre,Bagre,Bagre,185636,Q1804902,,-50.22198692,-1.88980806,15,15004,1501105
br,pa,baiao,Baião,Baiao,185671,Q804068,,-49.67275337,-2.791961861,15,15011,1501204
br,pa,bannach,Bannach,Bannach,185658,Q1804877,,-50.40604712,-7.351072192,15,15018,1501253
br,pa,barcarena,Barcarena,Barcarena,185661,Q2009595,,-48.62707289,-1.505767005,15,15007,1501303
br,pa,belem,Belém,Belem,185567,Q12829733,TRUE,-48.48782569,-1.459845,15,15007,1501402
br,pa,belterra,Belterra,Belterra,185582,Q609824,,-54.94267474,-2.64902017,15,15002,1501451
br,pa,benevides,Benevides,Benevides,185571,Q1804361,,-48.24183645,-1.361437515,15,15007,1501501
br,pa,bom-jesus-do-tocantins,Bom Jesus do Tocantins,Bom Jesus do Tocantins,185590,Q2130429,,-48.59903996,-5.047362704,15,15017,1501576
br,pa,bonito,Bonito,Bonito,90139,Q2078868,,-47.30589182,-1.367474357,15,15010,1501600
br,pa,braganca,Bragança,Braganca,90128,Q320487,,-46.76575421,-1.053523956,15,15010,1501709
br,pa,brasil-novo,Brasil Novo,Brasil Novo,185604,Q2008779,,-52.54344119,-3.297803704,15,15015,1501725
br,pa,brejo-grande-do-araguaia,Brejo Grande do Araguaia,Brejo Grande do Araguaia,185595,Q1975881,,-48.40576042,-5.707296154,15,15020,1501758
br,pa,breu-branco,Breu Branco,Breu Branco,185672,Q2008139,,-49.56987968,-3.778135413,15,15016,1501782
br,pa,breves,Breves,Breves,185663,Q1804770,,-50.4808948,-1.6907365,15,15005,1501808
br,pa,bujaru,Bujaru,Bujaru,185609,Q2009108,,-48.03587501,-1.513991462,15,15008,1501907
br,pa,cachoeira-do-piria,Cachoeira do Piriá,Cachoeira do Piria,185645,Q947745,,-46.54739142,-1.752897005,15,15013,1501956
br,pa,cachoeira-do-arari,Cachoeira do Arari,Cachoeira do Arari,185614,Q1804813,,-48.96066758,-1.008786266,15,15006,1502004
br,pa,cameta,Cametá,Cameta,185644,Q1805206,,-49.49783017,-2.24683848,15,15011,1502103
br,pa,canaa-dos-carajas,Canaã dos Carajás,Canaa dos Carajas,185626,Q2009474,,-49.84895843,-6.532196616,15,15019,1502152
br,pa,capanema,Capanema,Capanema,90136,Q1947031,,-47.17512612,-1.192441995,15,15010,1502202
br,pa,capitao-poco,Capitão Poço,Capitao Poco,2702845,Q955914,,-47.06282538,-1.746187293,15,15013,1502301
br,pa,castanhal,Castanhal,Castanhal,185664,Q984581,,-47.92664314,-1.295756805,15,15008,1502400
br,pa,chaves,Chaves,Chaves,185548,Q1899080,,-49.98931861,-0.1624372901,15,15006,1502509
br,pa,colares,Colares,Colares,185598,Q2008619,,-48.28872843,-0.932091244,15,15009,1502608
br,pa,conceicao-do-araguaia,Conceição do Araguaia,Conceicao do Araguaia,185643,Q1788037,,-49.26450081,-8.26486353,15,15022,1502707
br,pa,concordia-do-para,Concórdia do Pará,Concordia do Para,185673,Q2008125,,-47.94988694,-1.984521463,15,15012,1502756
br,pa,cumaru-do-norte,Cumaru do Norte,Cumaru do Norte,185615,Q2008271,,-50.77157838,-7.811106537,15,15018,1502764
br,pa,curionopolis,Curionópolis,Curionopolis,185662,Q2008449,,-49.60221423,-6.096819952,15,15019,1502772
br,pa,curralinho,Curralinho,Curralinho,185634,Q2011907,,-49.79152285,-1.80942342,15,15005,1502806
br,pa,curua,Curuá,Curua,185607,Q2008226,,-55.11967861,-1.889928704,15,15002,1502855
br,pa,curuca,Curuçá,Curuca,185576,Q1814514,,-47.85126509,-0.73249551,15,15009,1502905
br,pa,dom-eliseu,Dom Eliseu,Dom Eliseu,185640,Q2008541,,-47.55591489,-4.29077772,15,15017,1502939
br,pa,eldorado-do-carajas,Eldorado do Carajás,Eldorado do Carajas,185565,Q2008261,,-49.37395194,-6.103525161,15,15019,1502954
br,pa,faro,Faro,Faro,185656,Q2246005,,-56.74575302,-2.172975242,15,15001,1503002
br,pa,floresta-do-araguaia,Floresta do Araguaia,Floresta do Araguaia,185558,Q2008493,,-49.69757841,-7.558700872,15,15022,1503044
br,pa,garrafao-do-norte,Garrafão do Norte,Garrafao do Norte,185602,Q2008750,,-47.04504602,-1.931697043,15,15013,1503077
br,pa,goianesia-do-para,Goianésia do Pará,Goianesia do Para,185650,Q2008317,,-49.10104492,-3.842468,15,15017,1503093
br,pa,gurupa,Gurupá,Gurupa,185621,Q2011913,,-51.64369572,-1.404918,15,15004,1503101
br,pa,igarape-grande,Igarapé-Açu,Igarape-Acu,185585,Q2009058,,-47.62237549,-1.124322,15,15010,1503200
br,pa,igarape-miri,Igarapé-Miri,Igarape-Miri,185630,Q651613,,-48.96229947,-1.983116,15,15011,1503309
br,pa,inhangapi,Inhangapi,Inhangapi,185666,Q1880531,,-47.91339275,-1.426581981,15,15008,1503408
br,pa,ipixuna-do-para,Ipixuna do Pará,Ipixuna do Para,185574,Q675175,,-47.49971759,-2.5575285,15,15013,1503457
br,pa,irituia,Irituia,Irituia,185563,Q2008410,,-47.44075561,-1.771474995,15,15013,1503507
br,pa,itaituba,Itaituba,Itaituba,185625,Q655734,,-55.99004886,-4.26372948,15,15014,1503606
br,pa,itupiranga,Itupiranga,Itupiranga,185601,Q2008167,,-49.32442586,-5.128837026,15,15016,1503705
br,pa,jacareacanga,Jacareacanga,Jacareacanga,185577,Q1805252,,-57.76633986,-6.223551731,15,15014,1503754
br,pa,jacunda,Jacundá,Jacunda,185620,Q1967407,,-49.11278156,-4.448405475,15,15016,1503804
br,pa,juruti,Juruti,Juruti,185618,Q1008242,,-56.09499769,-2.155252995,15,15001,1503903
br,pa,limoeiro-do-ajuru,Limoeiro do Ajuru,Limoeiro do Ajuru,185657,Q2008564,,-49.3815339,-1.8919485,15,15011,1504000
br,pa,mae-do-rio,Mãe do Rio,Mae do Rio,185589,Q2008401,,-47.55229018,-2.047707441,15,15013,1504059
br,pa,magalhaes-barata,Magalhães Barata,Magalhaes Barata,185592,Q2008546,,-47.5991819,-0.795850156,15,15009,1504109
br,pa,maraba,Marabá,Maraba,185659,Q509818,,-49.14202533,-5.352605763,15,15020,1504208
br,pa,maracana,Maracanã,Maracana,185588,Q2089279,,-47.45526796,-0.76241946,15,15009,1504307
br,pa,marapanim,Marapanim,Marapanim,185649,Q1990477,,-47.70254875,-0.7121509963,15,15009,1504406
br,pa,marituba,Marituba,Marituba,185631,Q1805166,,-48.34053588,-1.346417266,15,15007,1504422
br,pa,medicilandia,Medicilândia,Medicilandia,185581,Q2009048,,-52.88834535,-3.445417412,15,15015,1504455
br,pa,melgaco,Melgaço,Melgaco,185584,Q2011923,,-50.7174647,-1.803446699,15,15004,1504505
br,pa,mocajuba,Mocajuba,Mocajuba,185623,Q2008596,,-49.50902346,-2.582872973,15,15011,1504604
br,pa,moju,Moju,Moju,185561,Q2008213,,-48.76719913,-1.885889,15,15012,1504703
br,pa,mojui-dos-campos,Mojuí dos Campos,Mojui dos Campos,3049385,Q22074332,,-54.64326888,-2.68245777,15,15002,1504752
br,pa,monte-alegre,Monte Alegre,Monte Alegre,185593,Q2289897,,-54.07337473,-2.003328,15,15002,1504802
br,pa,muana,Muaná,Muana,185606,Q1804369,,-49.21683244,-1.530026208,15,15006,1504901
br,pa,nova-esperanca-do-piria,Nova Esperança do Piriá,Nova Esperanca do Piria,185573,Q1121422,,-46.96209288,-2.267625989,15,15013,1504950
br,pa,nova-ipixuna,Nova Ipixuna,Nova Ipixuna,185679,Q728098,,-49.07988694,-4.923086307,15,15016,1504976
br,pa,nova-timboteua,Nova Timboteua,Nova Timboteua,2702846,Q2009430,,-47.39320228,-1.204143648,15,15010,1505007
br,pa,novo-progresso,Novo Progresso,Novo Progresso,185651,Q1787759,,-55.41987012,-7.034835913,15,15014,1505031
br,pa,novo-repartimento,Novo Repartimento,Novo Repartimento,185647,Q769811,,-49.94863824,-4.2481485,15,15016,1505064
br,pa,obidos,Óbidos,Obidos,185569,Q577167,,-55.51632351,-1.909235496,15,15001,1505106
br,pa,oeiras-do-para,Oeiras do Pará,Oeiras do Para,185638,Q2008580,,-49.85510611,-2.004734,15,15011,1505205
br,pa,oriximina,Oriximiná,Oriximina,185652,Q2011919,,-55.86279952,-1.7637535,15,15001,1505304
br,pa,ourem,Ourém,Ourem,90140,Q1829502,,-47.11761936,-1.548947142,15,15013,1505403
br,pa,ourilandia-do-norte,Ourilândia do Norte,Ourilandia do Norte,185605,Q2008237,,-51.09083277,-6.740617086,15,15018,1505437
br,pa,pacaja,Pacajá,Pacaja,185552,Q592117,,-50.63484083,-3.830305704,15,15015,1505486
br,pa,palestina-do-para,Palestina do Pará,Palestina do Para,185566,Q2009230,,-48.32179373,-5.749934106,15,15020,1505494
br,pa,paragominas,Paragominas,Paragominas,185667,Q935005,,-47.35696156,-2.9941905,15,15017,1505502
br,pa,parauapebas,Parauapebas,Parauapebas,185575,Q1806100,,-49.90078063,-6.072729888,15,15019,1505536
br,pa,pau-darco,Pau d'Arco,Pau d'Arco,185608,Q2008624,,-50.04827553,-7.836794404,15,15021,1505551
br,pa,peixe-boi,Peixe-Boi,Peixe-Boi,90135,Q2009222,,-47.31792702,-1.189569241,15,15010,1505601
br,pa,picarra,Piçarra,Picarra,185629,Q2008277,,-48.86840067,-6.453676235,15,15021,1505635
br,pa,placas,Placas,Placas,185676,Q602405,,-54.21696813,-3.867315562,15,15002,1505650
br,pa,ponta-de-pedras,Ponta de Pedras,Ponta de Pedras,185678,Q1804377,,-48.87178556,-1.396599998,15,15006,1505700
br,pa,portel,Portel,Portel,185632,Q2089210,,-50.82249044,-1.936451,15,15004,1505809
br,pa,porto-de-moz,Porto de Moz,Porto de Moz,185654,Q2011894,,-52.24247692,-1.746090089,15,15003,1505908
br,pa,prainha,Prainha,Prainha,185568,Q2009663,,-53.48181394,-1.8056945,15,15002,1506005
br,pa,primavera,Primavera,Primavera,90134,Q2329733,,-47.11725126,-0.9401115159,15,15010,1506104
br,pa,quatipuru,Quatipuru,Quatipuru,90132,Q2008521,,-47.00678699,-0.9001158537,15,15010,1506112
br,pa,redencao,Redenção,Redencao,185557,Q2381693,,-50.02964183,-8.0276045,15,15021,1506138
br,pa,rio-maria,Rio Maria,Rio Maria,185549,Q2008301,,-50.04641088,-7.311115245,15,15021,1506161
br,pa,rondon-do-para,Rondon do Pará,Rondon do Para,185603,Q2008429,,-48.06997375,-4.777821727,15,15017,1506187
br,pa,ruropolis,Rurópolis,Ruropolis,185564,Q2009519,,-54.90586226,-4.09906539,15,15014,1506195
br,pa,salinopolis,Salinópolis,Salinopolis,185586,Q1008198,,-47.35312026,-0.623638,15,15009,1506203
br,pa,salvaterra,Salvaterra,Salvaterra,185583,Q1921992,,-48.5131866,-0.7545259744,15,15006,1506302
br,pa,santa-barbara-do-para,Santa Bárbara do Pará,Santa Barbara do Para,185551,Q2009202,,-48.29774065,-1.229439467,15,15007,1506351
br,pa,santa-cruz-do-arari,Santa Cruz do Arari,Santa Cruz do Arari,185599,Q640618,,-49.17161557,-0.6599741256,15,15006,1506401
br,pa,santa-izabel-do-para,Santa Izabel do Pará,Santa Izabel do Para,185646,Q2008554,,-48.16305994,-1.297395901,15,15008,1506500
br,pa,santa-luzia-do-para,Santa Luzia do Pará,Santa Luzia do Para,185628,Q2008573,,-46.9061692,-1.518827891,15,15013,1506559
br,pa,santa-maria-das-barreiras,Santa Maria das Barreiras,Santa Maria das Barreiras,185600,Q2009212,,-49.71935186,-8.87055054,15,15022,1506583
br,pa,santa-maria-do-para,Santa Maria do Pará,Santa Maria do Para,185580,Q1901157,,-47.57469541,-1.347866459,15,15010,1506609
br,pa,santana-do-araguaia,Santana do Araguaia,Santana do Araguaia,185665,Q2008589,,-50.34480432,-9.329424525,15,15022,1506708
br,pa,santarem,Santarém,Santarem,185639,Q659450,,-54.71857017,-2.43621333,15,15002,1506807
br,pa,santarem-novo,Santarém Novo,Santarem Novo,185635,Q1811192,,-47.40092474,-0.9287195358,15,15010,1506906
br,pa,santo-antonio-do-taua,Santo Antônio do Tauá,Santo Antonio do Taua,185677,Q2009548,,-48.13243307,-1.1516925,15,15008,1507003
br,pa,sao-caetano-de-odivelas,São Caetano de Odivelas,Sao Caetano de Odivelas,185613,Q632789,,-48.0258055,-0.74661776,15,15009,1507102
br,pa,sao-domingos-do-araguaia,São Domingos do Araguaia,Sao Domingos do Araguaia,185559,Q1841455,,-48.72037341,-5.549841,15,15020,1507151
br,pa,sao-domingos-do-capim,São Domingos do Capim,Sao Domingos do Capim,185624,Q955985,,-47.77478457,-1.6758145,15,15013,1507201
br,pa,sao-felix-do-xingu,São Félix do Xingu,Sao Felix do Xingu,185669,Q1807317,,-51.99378252,-6.642483278,15,15018,1507300
br,pa,sao-francisco-do-para,São Francisco do Pará,Sao Francisco do Para,185642,Q2008769,,-47.79051461,-1.170188785,15,15010,1507409
br,pa,sao-geraldo-do-araguaia,São Geraldo do Araguaia,Sao Geraldo do Araguaia,185550,Q2008501,,-48.55571249,-6.39895797,15,15021,1507458
br,pa,sao-joao-da-ponta,São João da Ponta,Sao Joao da Ponta,185619,Q2008293,,-47.92072417,-0.8510021453,15,15009,1507466
br,pa,sao-joao-de-pirabas,São João de Pirabas,Sao Joao de Pirabas,185653,Q2008440,,-47.1726743,-0.7664425315,15,15009,1507474
br,pa,sao-joao-do-araguaia,São João do Araguaia,Sao Joao do Araguaia,185555,Q2008417,,-48.7886334,-5.359002724,15,15020,1507508
br,pa,sao-miguel-do-guama,São Miguel do Guamá,Sao Miguel do Guama,185611,Q2008532,,-47.48240894,-1.617135915,15,15013,1507607
br,pa,sao-sebastiao-da-boa-vista,São Sebastião da Boa Vista,Sao Sebastiao da Boa Vista,185591,Q1868533,,-49.53231217,-1.7188505,15,15005,1507706
br,pa,sapucaia,Sapucaia,Sapucaia,185556,Q2289887,,-49.70358071,-6.942857113,15,15021,1507755
br,pa,senador-jose-porfirio,Senador José Porfírio,Senador Jose Porfirio,185633,Q609027,,-51.95305642,-2.594850418,15,15015,1507805
br,pa,soure,Soure,Soure,185596,Q1016643,,-48.51601266,-0.7259255,15,15006,1507904
br,pa,tailandia,Tailândia,Tailandia,185612,Q2289846,,-48.95128163,-2.9370795,15,15012,1507953
br,pa,terra-alta,Terra Alta,Terra Alta,185637,Q2289951,,-47.90780835,-1.034826664,15,15009,1507961
br,pa,terra-santa,Terra Santa,Terra Santa,185597,Q2003795,,-56.49090477,-2.108114474,15,15001,1507979
br,pa,tome-acu,Tomé-Açu,Tome-Acu,185655,Q1805230,,-48.14689659,-2.419366855,15,15012,1508001
br,pa,tracuateua,Tracuateua,Tracuateua,90131,Q2008789,,-46.89947834,-1.068784059,15,15010,1508035
br,pa,trairao,Trairão,Trairao,185587,Q2009409,,-55.99617003,-4.69981915,15,15014,1508050
br,pa,tucuma,Tucumã,Tucuma,185594,Q22060188,,-51.13953925,-6.749972007,15,15018,1508084
br,pa,tucurui,Tucuruí,Tucurui,185562,Q374432,,-49.66718437,-3.766889084,15,15016,1508100
br,pa,ulianopolis,Ulianópolis,Ulianopolis,185627,Q2008337,,-47.50314476,-3.75719301,15,15017,1508126
br,pa,uruara,Uruará,Uruara,185670,Q2009083,,-53.73703105,-3.7065285,15,15015,1508159
br,pa,vigia,Vigia,Vigia,185648,Q1804913,,-48.14149859,-0.8555325737,15,15009,1508209
br,pa,viseu,Viseu,Viseu,90130,Q772569,,-46.13876522,-1.203278527,15,15013,1508308
br,pa,vitoria-do-xingu,Vitória do Xingu,Vitoria do Xingu,185675,Q2008512,,-52.01126035,-2.88376571,15,15015,1508357
br,pa,xinguara,Xinguara,Xinguara,185617,Q2008249,,-49.94270058,-7.101512827,15,15021,1508407
br,ap,serra-do-navio,Serra do Navio,Serra do Navio,331467,Q1754413,,-52.00353844,0.897841041,16,16003,1600055
br,ap,amapa,Amapá,Amapa,331477,Q586263,,-50.79321447,2.053921245,16,16002,1600105
br,ap,pedra-branca-do-amapari,Pedra Branca do Amapari,Pedra Branca do Amapari,331465,Q1772647,,-51.94659427,0.7768828606,16,16003,1600154
br,ap,calcoene,Calçoene,Calcoene,331472,Q1754431,,-50.94477273,2.496559045,16,16001,1600204
br,ap,cutias,Cutias,Cutias,331466,Q1754422,,-50.80162603,0.9710780554,16,16003,1600212
br,ap,ferreira-gomes,Ferreira Gomes,Ferreira Gomes,331479,Q1647054,,-51.18742905,0.8539773931,16,16003,1600238
br,ap,itaubal,Itaubal,Itaubal,331468,Q368933,,-50.70017944,0.6006532883,16,16003,1600253
br,ap,laranjal-do-jari,Laranjal do Jari,Laranjal do Jari,331469,Q1117969,,-52.53902074,-0.8556645,16,16004,1600279
br,ap,macapa,Macapá,Macapa,331473,Q180215,TRUE,-51.05740546,0.03895101,16,16003,1600303
br,ap,mazagao,Mazagão,Mazagao,331475,Q1800704,,-51.28607686,-0.1243963288,16,16004,1600402
br,ap,oiapoque,Oiapoque,Oiapoque,331471,Q906717,,-51.83055256,3.851130733,16,16001,1600501
br,ap,porto-grande,Porto Grande,Porto Grande,331470,Q1772692,,-51.41444882,0.7125547018,16,16003,1600535
br,ap,pracuuba,Pracuúba,Pracuuba,331474,Q1772625,,-50.78425372,1.742508487,16,16002,1600550
br,ap,santana,Santana,Santana,331476,Q1994845,,-51.17284647,-0.0383734791,16,16003,1600600
br,ap,tartarugalzinho,Tartarugalzinho,Tartarugalzinho,331478,Q1800762,,-50.91278615,1.50984824,16,16002,1600709
br,ap,vitoria-do-jari,Vitória do Jari,Vitoria do Jari,331464,Q1772675,,-52.41961478,-0.9189770885,16,16004,1600808
br,to,abreulandia,Abreulândia,Abreulandia,336740,Q1784836,,-49.16243756,-9.621790712,17,17003,1700251
br,to,aguiarnopolis,Aguiarnópolis,Aguiarnopolis,336780,Q1802133,,-47.47045659,-6.547170821,17,17001,1700301
br,to,alianca-do-tocantins,Aliança do Tocantins,Alianca do Tocantins,336857,Q1802116,,-48.94124002,-11.30374305,17,17005,1700350
br,to,almas,Almas,Almas,336768,Q22060165,,-47.17417168,-11.57452347,17,17008,1700400
br,to,alvorada,Alvorada,Alvorada,336831,Q22060164,,-49.12681141,-12.47881532,17,17005,1700707
br,to,ananas,Ananás,Ananas,336748,Q1948373,,-48.07976461,-6.362818154,17,17001,1701002
br,to,angico,Angico,Angico,336775,Q2011594,,-47.86207784,-6.38775275,17,17001,1701051
br,to,aparecida-do-rio-negro,Aparecida do Rio Negro,Aparecida do Rio Negro,336847,Q1802077,,-47.97667001,-9.955877715,17,17006,1701101
br,to,aragominas,Aragominas,Aragominas,336875,Q1801778,,-48.52343019,-7.164349271,17,17002,1701309
br,to,araguacema,Araguacema,Araguacema,336771,Q1801734,,-49.56181264,-8.801802544,17,17003,1701903
br,to,araguacu,Araguaçu,Araguacu,336846,Q593716,,-49.82861244,-12.92558371,17,17004,1702000
br,to,araguaina,Araguaína,Araguaina,336824,Q625279,,-48.20870525,-7.19132894,17,17002,1702109
br,to,araguana,Araguanã,Araguana,336869,Q957649,,-48.64374955,-6.58224942,17,17002,1702158
br,to,araguatins,Araguatins,Araguatins,336850,Q1783966,,-48.12350734,-5.650586473,17,17001,1702208
br,to,arapoema,Arapoema,Arapoema,336792,Q609102,,-49.07563739,-7.652569735,17,17002,1702307
br,to,arraias,Arraias,Arraias,336746,Q1801696,,-46.94610706,-12.93441986,17,17008,1702406
br,to,augustinopolis,Augustinópolis,Augustinopolis,336794,Q1801708,,-47.88095679,-5.465414296,17,17001,1702554
br,to,aurora-do-tocantins,Aurora do Tocantins,Aurora do Tocantins,336849,Q1801726,,-46.40708298,-12.70848986,17,17008,1702703
br,to,axixa-do-tocantins,Axixá do Tocantins,Axixa do Tocantins,336864,Q1801670,,-47.77415603,-5.624309066,17,17001,1702901
br,to,babaculandia,Babaçulândia,Babaculandia,336811,Q1801746,,-47.75881613,-7.201864532,17,17002,1703008
br,to,bandeirantes-do-tocantins,Bandeirantes do Tocantins,Bandeirantes do Tocantins,336789,Q2011614,,-48.5783806,-7.764859141,17,17002,1703057
br,to,barra-do-ouro,Barra do Ouro,Barra do Ouro,336856,Q512635,,-47.68713497,-7.691766599,17,17007,1703073
br,to,barrolandia,Barrolândia,Barrolandia,336844,Q1801737,,-48.73146059,-9.831653365,17,17003,1703107
br,to,bernardo-sayao,Bernardo Sayão,Bernardo Sayao,336807,Q2011573,,-48.89905435,-7.868512483,17,17003,1703206
br,to,bom-jesus-do-tocantins,Bom Jesus do Tocantins,Bom Jesus do Tocantins,336822,Q599288,,-48.16638049,-8.963348013,17,17006,1703305
br,to,brasilandia-do-tocantins,Brasilândia do Tocantins,Brasilandia do Tocantins,336759,Q1801749,,-48.48537442,-8.384889351,17,17003,1703602
br,to,brejinho-de-nazare,Brejinho de Nazaré,Brejinho de Nazare,336833,Q1801741,,-48.55866023,-11.01080506,17,17005,1703701
br,to,buriti-do-tocantins,Buriti do Tocantins,Buriti do Tocantins,336848,Q1801703,,-48.22325013,-5.313538856,17,17001,1703800
br,to,cachoeirinha,Cachoeirinha,Cachoeirinha,336825,Q2289907,,-47.91419778,-6.113241647,17,17001,1703826
br,to,campos-lindos,Campos Lindos,Campos Lindos,336770,Q1801753,,-46.80197435,-7.971681394,17,17007,1703842
br,to,cariri-do-tocantins,Cariri do Tocantins,Cariri do Tocantins,336752,Q1801690,,-49.17104073,-11.88899746,17,17005,1703867
br,to,carmolandia,Carmolândia,Carmolandia,336755,Q1801654,,-48.39595993,-7.031478778,17,17002,1703883
br,to,carrasco-bonito,Carrasco Bonito,Carrasco Bonito,336806,Q1801716,,-48.03063343,-5.322661355,17,17001,1703891
br,to,caseara,Caseara,Caseara,336827,Q1801760,,-49.94869227,-9.267406219,17,17003,1703909
br,to,centenario,Centenário,Centenario,336793,Q2116769,,-47.33839851,-8.958463639,17,17007,1704105
br,to,chapada-de-areia,Chapada de Areia,Chapada de Areia,336863,Q773264,,-49.18310786,-10.14198858,17,17004,1704600
br,to,chapada-da-natividade,Chapada da Natividade,Chapada da Natividade,336820,Q1801647,,-47.75390489,-11.62426783,17,17008,1705102
br,to,colinas-do-tocantins,Colinas do Tocantins,Colinas do Tocantins,336843,Q1801758,,-48.48159454,-8.054624676,17,17002,1705508
br,to,combinado,Combinado,Combinado,336868,Q746335,,-46.55207234,-12.81860767,17,17008,1705557
br,to,conceicao-do-tocantins,Conceição do Tocantins,Conceicao do Tocantins,336816,Q1801713,,-47.29286881,-12.21727777,17,17008,1705607
br,to,couto-magalhaes,Couto Magalhães,Couto Magalhaes,336873,Q672837,,-49.17657157,-8.35511837,17,17003,1706001
br,to,cristalandia,Cristalândia,Cristalandia,336866,Q1798698,,-49.18630029,-10.59072464,17,17004,1706100
br,to,crixas-do-tocantins,Crixás do Tocantins,Crixas do Tocantins,336814,Q1801175,,-48.91551383,-11.10427429,17,17005,1706258
br,to,darcinopolis,Darcinópolis,Darcinopolis,336872,Q1801100,,-47.75216111,-6.712351002,17,17001,1706506
br,to,dianopolis,Dianópolis,Dianopolis,336871,Q1801150,,-46.82040907,-11.62523188,17,17008,1707009
br,to,divinopolis-do-tocantins,Divinópolis do Tocantins,Divinopolis do Tocantins,336784,Q649398,,-49.20541319,-9.79530114,17,17003,1707108
br,to,dois-irmaos-do-tocantins,Dois Irmãos do Tocantins,Dois Irmaos do Tocantins,336865,Q967767,,-49.06733864,-9.26129671,17,17003,1707207
br,to,duere,Dueré,Duere,336867,Q1800970,,-49.26587592,-11.34128542,17,17004,1707306
br,to,esperantina,Esperantina,Esperantina,336773,Q977277,,-48.5441476,-5.366608059,17,17001,1707405
br,to,fatima,Fátima,Fatima,336754,Q2196935,,-48.89898266,-10.75250873,17,17004,1707553
br,to,figueiropolis,Figueirópolis,Figueiropolis,336782,Q1801233,,-49.17384673,-12.13677998,17,17005,1707652
br,to,filadelfia,Filadélfia,Filadelfia,336826,Q690299,,-47.48496414,-7.337611906,17,17002,1707702
br,to,formoso-do-araguaia,Formoso do Araguaia,Formoso do Araguaia,336772,Q1801246,,-49.52686036,-11.80514197,17,17004,1708205
br,to,fortaleza-do-tabocao,Fortaleza do Tabocão,Fortaleza do Tabocao,336795,Q1801070,,-48.51742642,-9.058965301,17,17003,1708254
br,to,goianorte,Goianorte,Goianorte,336870,Q1801208,,-48.93689019,-8.770520805,17,17003,1708304
br,to,goiatins,Goiatins,Goiatins,336829,Q1801197,,-47.31543549,-7.70917239,17,17007,1709005
br,to,guarai,Guaraí,Guarai,336791,Q1801179,,-48.50864061,-8.836165658,17,17003,1709302
br,to,gurupi,Gurupi,Gurupi,336840,Q1784265,,-49.07147747,-11.72977232,17,17005,1709500
br,to,ipueiras,Ipueiras,Ipueiras,336815,Q946408,,-48.45192623,-11.24628862,17,17006,1709807
br,to,itacaja,Itacajá,Itacaja,336860,Q535056,,-47.7681124,-8.390980552,17,17007,1710508
br,to,itaguatins,Itaguatins,Itaguatins,336832,Q1801108,,-47.47993595,-5.775385088,17,17001,1710706
br,to,itapiratins,Itapiratins,Itapiratins,336785,Q1800939,,-48.11119961,-8.384329593,17,17007,1710904
br,to,itapora-do-tocantins,Itaporã do Tocantins,Itapora do Tocantins,336743,Q770338,,-48.6932637,-8.568828612,17,17003,1711100
br,to,jau-do-tocantins,Jaú do Tocantins,Jau do Tocantins,336812,Q1801212,,-48.59460829,-12.65292637,17,17005,1711506
br,to,juarina,Juarina,Juarina,336738,Q374444,,-49.09864319,-8.117423968,17,17003,1711803
br,to,lagoa-da-confusao,Lagoa da Confusão,Lagoa da Confusao,336766,Q1801577,,-49.62008534,-10.78869556,17,17004,1711902
br,to,lagoa-do-tocantins,Lagoa do Tocantins,Lagoa do Tocantins,336787,Q1801591,,-47.56144663,-10.2968867,17,17007,1711951
br,to,lajeado,Lajeado,Lajeado,336741,Q2085548,,-48.35850395,-9.744682436,17,17006,1712009
br,to,lavandeira,Lavandeira,Lavandeira,336758,Q1801192,,-46.50667572,-12.79165879,17,17008,1712157
br,to,lizarda,Lizarda,Lizarda,336845,Q1786619,,-46.67516546,-9.594570288,17,17007,1712405
br,to,luzinopolis,Luzinópolis,Luzinopolis,336783,Q1801642,,-47.85682804,-6.19398966,17,17001,1712454
br,to,marianopolis-do-tocantins,Marianópolis do Tocantins,Marianopolis do Tocantins,336858,Q1801628,,-49.65103399,-9.798880359,17,17003,1712504
br,to,mateiros,Mateiros,Mateiros,336781,Q1801064,,-46.41246574,-10.54442885,17,17007,1712702
br,to,maurilandia-do-tocantins,Maurilândia do Tocantins,Maurilandia do Tocantins,336760,Q1801042,,-47.50487996,-5.952566421,17,17001,1712801
br,to,miracema-do-tocantins,Miracema do Tocantins,Miracema do Tocantins,336828,Q993530,,-48.38799131,-9.568346078,17,17003,1713205
br,to,miranorte,Miranorte,Miranorte,336750,Q1800924,,-48.59263194,-9.517404731,17,17003,1713304
br,to,monte-do-carmo,Monte do Carmo,Monte do Carmo,336861,Q1801517,,-48.11042003,-10.76354219,17,17006,1713601
br,to,monte-santo-do-tocantins,Monte Santo do Tocantins,Monte Santo do Tocantins,336874,Q2011582,,-48.9908906,-10.00559143,17,17003,1713700
br,to,palmeiras-do-tocantins,Palmeiras do Tocantins,Palmeiras do Tocantins,336749,Q1801156,,-47.55868353,-6.611862335,17,17001,1713809
br,to,muricilandia,Muricilândia,Muricilandia,336790,Q1801142,,-48.60674528,-7.138519285,17,17002,1713957
br,to,natividade,Natividade,Natividade,336838,Q1801567,,-47.72725753,-11.70535738,17,17008,1714203
br,to,nazare,Nazaré,Nazare,336855,Q2289927,,-47.66697718,-6.372557969,17,17001,1714302
br,to,nova-olinda,Nova Olinda,Nova Olinda,336751,Q2079727,,-48.42480679,-7.633314911,17,17002,1714880
br,to,nova-rosalandia,Nova Rosalândia,Nova Rosalandia,336796,Q1801604,,-48.90618072,-10.56687114,17,17004,1715002
br,to,novo-acordo,Novo Acordo,Novo Acordo,336852,Q1801572,,-47.66814839,-9.968486466,17,17007,1715101
br,to,novo-alegre,Novo Alegre,Novo Alegre,336851,Q1801587,,-46.57729735,-12.90993867,17,17008,1715150
br,to,novo-jardim,Novo Jardim,Novo Jardim,336739,Q1801252,,-46.6307873,-11.81587505,17,17008,1715259
br,to,oliveira-de-fatima,Oliveira de Fátima,Oliveira de Fatima,336817,Q1801609,,-48.90740157,-10.70836271,17,17004,1715507
br,to,palmeirante,Palmeirante,Palmeirante,336802,Q523587,,-47.93424971,-7.857561376,17,17002,1715705
br,to,palmeiropolis,Palmeirópolis,Palmeiropolis,336834,Q1801038,,-48.41341396,-13.03988843,17,17005,1715754
br,to,paraiso-do-tocantins,Paraíso do Tocantins,Paraiso do Tocantins,336859,Q978148,,-48.88663008,-10.17122076,17,17004,1716109
br,to,parana,Paranã,Parana,336839,Q1801570,,-47.88408373,-12.62048149,17,17008,1716208
br,to,pau-darco,Pau d'Arco,Pau d'Arco,336797,Q2085357,,-49.36330648,-7.539998356,17,17002,1716307
br,to,pedro-afonso,Pedro Afonso,Pedro Afonso,336737,Q1801535,,-48.17755611,-8.964449592,17,17006,1716505
br,to,peixe,Peixe,Peixe,336736,Q654261,,-48.53781063,-12.02977383,17,17005,1716604
br,to,pequizeiro,Pequizeiro,Pequizeiro,336756,Q1801219,,-48.93517987,-8.593340654,17,17003,1716653
br,to,colmeia,Colméia,Colmeia,336757,Q1801662,,-48.75706659,-8.729371807,17,17003,1716703
br,to,pindorama-do-tocantins,Pindorama do Tocantins,Pindorama do Tocantins,336841,Q1800896,,-47.57568772,-11.13820258,17,17008,1717008
br,to,piraque,Piraquê,Piraque,336813,Q962028,,-48.29370739,-6.769777033,17,17002,1717206
br,to,pium,Pium,Pium,336786,Q1800961,,-49.16665801,-10.44093112,17,17004,1717503
br,to,ponte-alta-do-bom-jesus,Ponte Alta do Bom Jesus,Ponte Alta do Bom Jesus,336842,Q1800881,,-46.46958679,-12.08781291,17,17008,1717800
br,to,ponte-alta-do-tocantins,Ponte Alta do Tocantins,Ponte Alta do Tocantins,336830,Q1801637,,-47.54118036,-10.74067285,17,17007,1717909
br,to,porto-alegre-do-tocantins,Porto Alegre do Tocantins,Porto Alegre do Tocantins,336810,Q677566,,-47.0474256,-11.6072591,17,17008,1718006
br,to,porto-nacional,Porto Nacional,Porto Nacional,336788,Q1784315,,-48.41215346,-10.70856992,17,17006,1718204
br,to,praia-norte,Praia Norte,Praia Norte,336779,Q1801132,,-47.81473173,-5.396712877,17,17001,1718303
br,to,presidente-kennedy,Presidente Kennedy,Presidente Kennedy,336747,Q2085534,,-48.50433067,-8.529960828,17,17003,1718402
br,to,pugmil,Pugmil,Pugmil,336745,Q1801581,,-48.89422045,-10.42430716,17,17004,1718451
br,to,recursolandia,Recursolândia,Recursolandia,336742,Q1801075,,-47.2380412,-8.735360454,17,17007,1718501
br,to,riachinho,Riachinho,Riachinho,336753,Q2197944,,-48.1410455,-6.442211388,17,17001,1718550
br,to,rio-da-conceicao,Rio da Conceição,Rio da Conceicao,336823,Q1801085,,-46.8803997,-11.40494002,17,17008,1718659
br,to,rio-dos-bois,Rio dos Bois,Rio dos Bois,336821,Q580856,,-48.53304797,-9.343742239,17,17003,1718709
br,to,rio-sono,Rio Sono,Rio Sono,336836,Q1801199,,-47.89994164,-9.347789334,17,17007,1718758
br,to,sampaio,Sampaio,Sampaio,336835,Q1801137,,-47.87579246,-5.349295617,17,17001,1718808
br,to,sandolandia,Sandolândia,Sandolandia,336837,Q1801094,,-49.93338815,-12.54160017,17,17004,1718840
br,to,santa-fe-do-araguaia,Santa Fé do Araguaia,Santa Fe do Araguaia,336862,Q991120,,-48.6939418,-7.149936385,17,17002,1718865
br,to,santa-maria-do-tocantins,Santa Maria do Tocantins,Santa Maria do Tocantins,336854,Q522587,,-47.74527042,-8.774976449,17,17006,1718881
br,to,santa-rita-do-tocantins,Santa Rita do Tocantins,Santa Rita do Tocantins,336853,Q1801241,,-48.90929401,-10.86645537,17,17005,1718899
br,to,santa-rosa-do-tocantins,Santa Rosa do Tocantins,Santa Rosa do Tocantins,336744,Q1801204,,-48.11995422,-11.451404,17,17008,1718907
br,to,santa-tereza-do-tocantins,Santa Tereza do Tocantins,Santa Tereza do Tocantins,336774,Q1801050,,-47.80628832,-10.28236153,17,17007,1719004
br,to,santa-terezinha-do-tocantins,Santa Terezinha do Tocantins,Santa Terezinha do Tocantins,336776,Q929170,,-47.68428536,-6.436997618,17,17001,1720002
br,to,sao-bento-do-tocantins,São Bento do Tocantins,Sao Bento do Tocantins,336778,Q1801161,,-47.91939229,-6.044999257,17,17001,1720101
br,to,sao-felix-do-tocantins,São Félix do Tocantins,Sao Felix do Tocantins,336777,Q1801186,,-46.65498083,-10.17328585,17,17007,1720150
br,to,sao-miguel-do-tocantins,São Miguel do Tocantins,Sao Miguel do Tocantins,336761,Q1800932,,-47.57300234,-5.553819529,17,17001,1720200
br,to,sao-salvador-do-tocantins,São Salvador do Tocantins,Sao Salvador do Tocantins,336762,Q1800952,,-48.23208499,-12.74743341,17,17005,1720259
br,to,sao-sebastiao-do-tocantins,São Sebastião do Tocantins,Sao Sebastiao do Tocantins,336763,Q1801056,,-48.20383415,-5.258961454,17,17001,1720309
br,to,sao-valerio,São Valério,Sao Valerio,336764,Q1801542,,-48.23294843,-11.97306746,17,17008,1720499
br,to,silvanopolis,Silvanópolis,Silvanopolis,336765,Q1801168,,-48.17982414,-11.14986131,17,17006,1720655
br,to,sitio-novo-do-tocantins,Sítio Novo do Tocantins,Sitio Novo do Tocantins,336767,Q1801080,,-47.63742265,-5.604726857,17,17001,1720804
br,to,sucupira,Sucupira,Sucupira,336769,Q2011603,,-48.91112628,-11.98622151,17,17005,1720853
br,to,taguatinga,Taguatinga,Taguatinga,336803,Q22060005,,-46.4387317,-12.39614174,17,17008,1720903
br,to,taipas-do-tocantins,Taipas do Tocantins,Taipas do Tocantins,336804,Q1800947,,-46.9845718,-12.19283721,17,17008,1720937
br,to,talisma,Talismã,Talisma,336805,Q1801633,,-49.09111843,-12.78753841,17,17005,1720978
br,to,palmas,Palmas,Palmas,336798,Q178993,TRUE,-48.35104371,-10.16325333,17,17006,1721000
br,to,tocantinia,Tocantínia,Tocantinia,336799,Q1801598,,-48.37587967,-9.558147734,17,17006,1721109
br,to,tocantinopolis,Tocantinópolis,Tocantinopolis,336800,Q587927,,-47.42741293,-6.325634376,17,17001,1721208
br,to,tupirama,Tupirama,Tupirama,336801,Q1801526,,-48.2066848,-8.980569549,17,17003,1721257
br,to,tupiratins,Tupiratins,Tupiratins,336808,Q1801621,,-48.12299574,-8.395529997,17,17003,1721307
br,to,wanderlandia,Wanderlândia,Wanderlandia,336809,Q1798710,,-47.95626773,-6.850125517,17,17002,1722081
br,to,xambioa,Xambioá,Xambioa,336818,Q635920,,-48.53160107,-6.41188502,17,17002,1722107
br,ma,acailandia,Açailândia,Acailandia,332883,Q1763534,,-47.50666459,-4.951377,21,21009,2100055
br,ma,afonso-cunha,Afonso Cunha,Afonso Cunha,332900,Q532160,,-43.320869,-4.135015477,21,21016,2100105
br,ma,agua-doce-do-maranhao,Água Doce do Maranhão,Agua Doce do Maranhao,332936,Q2013406,,-42.1155512,-2.840278279,21,21013,2100154
br,ma,alcantara,Alcântara,Alcantara,332985,Q939522,,-44.41701254,-2.403276525,21,21001,2100204
br,ma,aldeias-altas,Aldeias Altas,Aldeias Altas,332823,Q2013348,,-43.46873485,-4.630779495,21,21016,2100303
br,ma,altamira-do-maranhao,Altamira do Maranhão,Altamira do Maranhao,332830,Q2013259,,-45.46467583,-4.162269267,21,21008,2100402
br,ma,alto-alegre-do-maranhao,Alto Alegre do Maranhão,Alto Alegre do Maranhao,332864,Q373783,,-44.44824749,-4.207227,21,21015,2100436
br,ma,alto-alegre-do-pindare,Alto Alegre do Pindaré,Alto Alegre do Pindare,332962,Q2028638,,-45.84207962,-3.665170375,21,21008,2100477
br,ma,alto-parnaiba,Alto Parnaíba,Alto Parnaiba,332819,Q1812998,,-45.92734401,-9.108365932,21,21020,2100501
br,ma,amapa-do-maranhao,Amapá do Maranhão,Amapa do Maranhao,332774,Q2013296,,-46.0091799,-1.680921495,21,21007,2100550
br,ma,amarante-do-maranhao,Amarante do Maranhão,Amarante do Maranhao,332886,Q947834,,-46.75063755,-5.557662,21,21009,2100600
br,ma,anajatuba,Anajatuba,Anajatuba,332973,Q2013314,,-44.62067003,-3.257554842,21,21005,2100709
br,ma,anapurus,Anapurus,Anapurus,332959,Q2013366,,-43.10579251,-3.667034662,21,21014,2100808
br,ma,apicum-acu,Apicum-Açu,Apicum-Acu,332873,Q2013356,,-45.07665207,-1.530591578,21,21001,2100832
br,ma,araguana,Araguanã,Araguana,332834,Q2209464,,-45.66879448,-2.949125623,21,21008,2100873
br,ma,araioses,Araioses,Araioses,332920,Q2041199,,-41.89913945,-2.889255846,21,21013,2100907
br,ma,arame,Arame,Arame,332945,Q2036277,,-46.01363628,-4.886081505,21,21011,2100956
br,ma,arari,Arari,Arari,332865,Q1813008,,-44.77883465,-3.45917097,21,21005,2101004
br,ma,axixa,Axixá,Axixa,332803,Q630926,,-44.05458581,-2.837796837,21,21003,2101103
br,ma,bacabal,Bacabal,Bacabal,332958,Q1807313,,-44.78155596,-4.23152463,21,21010,2101202
br,ma,bacabeira,Bacabeira,Bacabeira,332988,Q2068936,,-44.31542299,-2.985824779,21,21003,2101251
br,ma,bacuri,Bacuri,Bacuri,332907,Q2089681,,-45.13734894,-1.724046319,21,21001,2101301
br,ma,bacurituba,Bacurituba,Bacurituba,332935,Q640733,,-44.73574201,-2.710871977,21,21001,2101350
br,ma,balsas,Balsas,Balsas,332875,Q1813001,,-46.03899267,-7.53116999,21,21020,2101400
br,ma,barao-de-grajau,Barão de Grajaú,Barao de Grajau,332932,Q591015,,-43.0264527,-6.758955206,21,21018,2101509
br,ma,barra-do-corda,Barra do Corda,Barra do Corda,332984,Q1807301,,-45.23901102,-5.5083395,21,21011,2101608
br,ma,barreirinhas,Barreirinhas,Barreirinhas,332880,Q2040600,,-42.82780251,-2.750085949,21,21004,2101707
br,ma,belagua,Belágua,Belagua,332872,Q2013308,,-43.51006164,-3.156772228,21,21014,2101731
br,ma,bela-vista-do-maranhao,Bela Vista do Maranhão,Bela Vista do Maranhao,332848,Q2013283,,-45.24824588,-3.73773325,21,21005,2101772
br,ma,benedito-leite,Benedito Leite,Benedito Leite,332827,Q2068847,,-44.5598568,-7.218799795,21,21021,2101806
br,ma,bequimao,Bequimão,Bequimao,332798,Q2068952,,-44.78573016,-2.462062995,21,21001,2101905
br,ma,bernardo-do-mearim,Bernardo do Mearim,Bernardo do Mearim,332980,Q2008013,,-44.7643231,-4.630287491,21,21010,2101939
br,ma,boa-vista-do-gurupi,Boa Vista do Gurupi,Boa Vista do Gurupi,332974,Q2068253,,-46.29871005,-1.793296136,21,21007,2101970
br,ma,bom-jardim,Bom Jardim,Bom Jardim,332916,Q2279959,,-45.60188939,-3.544160978,21,21008,2102002
br,ma,bom-jesus-das-selvas,Bom Jesus das Selvas,Bom Jesus das Selvas,332942,Q2068303,,-46.85324122,-4.489968353,21,21008,2102036
br,ma,bom-lugar,Bom Lugar,Bom Lugar,332966,Q2068928,,-45.03110786,-4.375509602,21,21010,2102077
br,ma,brejo,Brejo,Brejo,332972,Q659888,,-42.75084783,-3.679178,21,21014,2102101
br,ma,brejo-de-areia,Brejo de Areia,Brejo de Areia,332791,Q2068871,,-45.58209527,-4.330629898,21,21008,2102150
br,ma,buriti,Buriti,Buriti,332779,Q2135872,,-42.92510618,-3.9455715,21,21014,2102200
br,ma,buriti-bravo,Buriti Bravo,Buriti Bravo,332867,Q2013234,,-43.83562154,-5.835288132,21,21017,2102309
br,ma,buriticupu,Buriticupu,Buriticupu,332852,Q2013248,,-46.45149532,-4.325947726,21,21008,2102325
br,ma,buritirana,Buritirana,Buritirana,332888,Q2013324,,-47.01722509,-5.588915142,21,21009,2102358
br,ma,cachoeira-grande,Cachoeira Grande,Cachoeira Grande,332951,Q2013274,,-44.05968502,-2.931921039,21,21003,2102374
br,ma,cajapio,Cajapió,Cajapio,332956,Q934637,,-44.67337716,-2.882882203,21,21001,2102408
br,ma,cajari,Cajari,Cajari,332804,Q510992,,-45.00796534,-3.323868831,21,21005,2102507
br,ma,campestre-do-maranhao,Campestre do Maranhão,Campestre do Maranhao,332826,Q1122744,,-47.36763286,-6.164716646,21,21019,2102556
br,ma,candido-mendes,Cândido Mendes,Candido Mendes,332981,Q2068838,,-45.73726837,-1.453889109,21,21007,2102606
br,ma,cantanhede,Cantanhede,Cantanhede,332943,Q2103724,,-44.38181614,-3.628364312,21,21006,2102705
br,ma,capinzal-do-norte,Capinzal do Norte,Capinzal do Norte,332815,Q2068268,,-44.33043625,-4.721245389,21,21015,2102754
br,ma,carolina,Carolina,Carolina,332955,Q651807,,-47.4700918,-7.330783005,21,21019,2102804
br,ma,carutapera,Carutapera,Carutapera,332842,Q2016480,,-46.02315083,-1.200602,21,21007,2102903
br,ma,caxias,Caxias,Caxias,332983,Q997107,,-43.35853943,-4.86167499,21,21017,2103000
br,ma,cedral,Cedral,Cedral,332878,Q2095187,,-44.53078953,-1.997915926,21,21001,2103109
br,ma,central-do-maranhao,Central do Maranhão,Central do Maranhao,332922,Q2068312,,-44.8318437,-2.191313908,21,21001,2103125
br,ma,centro-do-guilherme,Centro do Guilherme,Centro do Guilherme,332845,Q2068246,,-46.03996011,-2.456985082,21,21007,2103158
br,ma,centro-novo-do-maranhao,Centro Novo do Maranhão,Centro Novo do Maranhao,332910,Q2013267,,-46.12840896,-2.144291699,21,21007,2103174
br,ma,chapadinha,Chapadinha,Chapadinha,332847,Q746060,,-43.36112078,-3.74002452,21,21014,2103208
br,ma,cidelandia,Cidelândia,Cidelandia,332786,Q924546,,-47.78423278,-5.177421047,21,21009,2103257
br,ma,codo,Codó,Codo,332990,Q2013225,,-43.88608024,-4.4513375,21,21015,2103307
br,ma,coelho-neto,Coelho Neto,Coelho Neto,332979,Q2019296,,-43.01401362,-4.2547375,21,21016,2103406
br,ma,colinas,Colinas,Colinas,332929,Q369679,,-44.24978023,-6.02736552,21,21018,2103505
br,ma,conceicao-do-lago-acu,Conceição do Lago-Açu,Conceicao do Lago-Acu,332891,Q2012506,,-44.90301591,-3.841118458,21,21005,2103554
br,ma,coroata,Coroatá,Coroata,332856,Q967552,,-44.1255992,-4.128976,21,21015,2103604
br,ma,cururupu,Cururupu,Cururupu,332838,Q1886395,,-44.86776162,-1.825520781,21,21001,2103703
br,ma,davinopolis,Davinópolis,Davinopolis,332817,Q2105097,,-47.40499639,-5.534456216,21,21009,2103752
br,ma,dom-pedro,Dom Pedro,Dom Pedro,332776,Q1823871,,-44.44000991,-5.038447635,21,21012,2103802
br,ma,duque-bacelar,Duque Bacelar,Duque Bacelar,332773,Q646515,,-42.9441802,-4.147819097,21,21016,2103901
br,ma,esperantinopolis,Esperantinópolis,Esperantinopolis,332820,Q2013171,,-44.8860687,-4.870300898,21,21010,2104008
br,ma,estreito,Estreito,Estreito,332861,Q2068863,,-47.44788299,-6.56808498,21,21019,2104057
br,ma,feira-nova-do-maranhao,Feira Nova do Maranhão,Feira Nova do Maranhao,332839,Q2068274,,-46.68735522,-6.963135541,21,21020,2104073
br,ma,fernando-falcao,Fernando Falcão,Fernando Falcao,332971,Q2068889,,-44.9107074,-6.154978463,21,21011,2104081
br,ma,formosa-da-serra-negra,Formosa da Serra Negra,Formosa da Serra Negra,332941,Q2068944,,-46.18635701,-6.435304106,21,21011,2104099
br,ma,fortaleza-dos-nogueiras,Fortaleza dos Nogueiras,Fortaleza dos Nogueiras,332809,Q2068880,,-46.18555754,-6.965926088,21,21021,2104107
br,ma,fortuna,Fortuna,Fortuna,332802,Q2034097,,-44.16062843,-5.736224133,21,21012,2104206
br,ma,godofredo-viana,Godofredo Viana,Godofredo Viana,332899,Q939995,,-45.77175481,-1.409800187,21,21007,2104305
br,ma,goncalves-dias,Gonçalves Dias,Goncalves Dias,332885,Q14629944,,-44.30590654,-5.14395557,21,21012,2104404
br,ma,governador-archer,Governador Archer,Governador Archer,332876,Q2012522,,-44.27575653,-5.025387824,21,21012,2104503
br,ma,governador-edison-lobao,Governador Edison Lobão,Governador Edison Lobao,332957,Q2012559,,-47.36893584,-5.747411739,21,21009,2104552
br,ma,governador-eugenio-barros,Governador Eugênio Barros,Governador Eugenio Barros,332772,Q2068814,,-44.24696265,-5.322491002,21,21012,2104602
br,ma,governador-luiz-rocha,Governador Luiz Rocha,Governador Luiz Rocha,332780,Q432254,,-44.07088734,-5.472864685,21,21012,2104628
br,ma,governador-newton-bello,Governador Newton Bello,Governador Newton Bello,332799,Q2068907,,-45.6745018,-3.42970472,21,21008,2104651
br,ma,governador-nunes-freire,Governador Nunes Freire,Governador Nunes Freire,332828,Q2068296,,-45.88148113,-2.13496236,21,21007,2104677
br,ma,graca-aranha,Graça Aranha,Graca Aranha,332837,Q2082297,,-44.33579126,-5.404821213,21,21012,2104701
br,ma,grajau,Grajaú,Grajau,332843,Q2043418,,-46.14239564,-5.818548431,21,21011,2104800
br,ma,guimaraes,Guimarães,Guimaraes,332858,Q2101408,,-44.59774646,-2.135077158,21,21001,2104909
br,ma,humberto-de-campos,Humberto de Campos,Humberto de Campos,332893,Q1814500,,-43.46509214,-2.591223972,21,21004,2105005
br,ma,icatu,Icatu,Icatu,332912,Q2068290,,-44.06584847,-2.774827863,21,21003,2105104
br,ma,igarape-acu,Igarapé do Meio,Igarape do Meio,332949,Q1832376,,-45.1833277,-3.636708522,21,21005,2105153
br,ma,igarape-do-meio,Igarapé Grande,Igarape Grande,332953,Q2068280,,-44.86740335,-4.660853806,21,21010,2105203
br,ma,imperatriz,Imperatriz,Imperatriz,332989,Q504755,,-47.47981081,-5.526524025,21,21009,2105302
br,ma,itaipava-do-grajau,Itaipava do Grajaú,Itaipava do Grajau,332805,Q2068260,,-45.7926825,-5.144582262,21,21011,2105351
br,ma,itapecuru-mirim,Itapecuru Mirim,Itapecuru Mirim,332816,Q2012733,,-44.35426339,-3.39904548,21,21006,2105401
br,ma,itinga-do-maranhao,Itinga do Maranhão,Itinga do Maranhao,332895,Q2012566,,-47.52790996,-4.455003998,21,21009,2105427
br,ma,jatoba,Jatobá,Jatoba,332890,Q2103541,,-44.21991477,-5.819666937,21,21018,2105450
br,ma,jenipapo-dos-vieiras,Jenipapo dos Vieiras,Jenipapo dos Vieiras,332889,Q781692,,-45.63337911,-5.369424926,21,21011,2105476
br,ma,joao-lisboa,João Lisboa,Joao Lisboa,332919,Q1875142,,-47.40503615,-5.453662942,21,21009,2105500
br,ma,joselandia,Joselândia,Joselandia,332939,Q2068225,,-44.69915256,-4.972693329,21,21011,2105609
br,ma,junco-do-maranhao,Junco do Maranhão,Junco do Maranhao,332986,Q2068232,,-46.07072607,-1.874609598,21,21007,2105658
br,ma,lago-da-pedra,Lago da Pedra,Lago da Pedra,332851,Q1008300,,-45.12589136,-4.564744515,21,21008,2105708
br,ma,lago-do-junco,Lago do Junco,Lago do Junco,332863,Q927111,,-45.05134439,-4.607643218,21,21010,2105807
br,ma,lago-verde,Lago Verde,Lago Verde,332835,Q2105837,,-44.93763523,-4.038711295,21,21010,2105906
br,ma,lagoa-do-mato,Lagoa do Mato,Lagoa do Mato,332813,Q2012976,,-43.52755912,-6.045277297,21,21018,2105922
br,ma,lago-dos-rodrigues,Lago dos Rodrigues,Lago dos Rodrigues,332811,Q305180,,-44.97644233,-4.612375777,21,21010,2105948
br,ma,lagoa-grande-do-maranhao,Lagoa Grande do Maranhão,Lagoa Grande do Maranhao,332829,Q2012551,,-45.39061428,-4.993123737,21,21008,2105963
br,ma,lajeado-novo,Lajeado Novo,Lajeado Novo,332987,Q930035,,-47.03244752,-6.191609227,21,21009,2105989
br,ma,lima-campos,Lima Campos,Lima Campos,332952,Q2068220,,-44.46934033,-4.517045987,21,21010,2106003
br,ma,loreto,Loreto,Loreto,332887,Q2103736,,-45.13924164,-7.094454165,21,21021,2106102
br,ma,luis-domingues,Luís Domingues,Luis Domingues,332857,Q2068240,,-45.89533199,-1.325460244,21,21007,2106201
br,ma,magalhaes-de-almeida,Magalhães de Almeida,Magalhaes de Almeida,332860,Q2012532,,-42.20150669,-3.396667674,21,21013,2106300
br,ma,maracacume,Maracaçumé,Maracacume,332862,Q2064676,,-45.95863904,-2.05616455,21,21007,2106326
br,ma,maraja-do-sena,Marajá do Sena,Maraja do Sena,332846,Q743349,,-45.45723765,-4.620313324,21,21008,2106359
br,ma,maranhaozinho,Maranhãozinho,Maranhaozinho,332836,Q1846576,,-45.85561145,-2.235616992,21,21007,2106375
br,ma,mata-roma,Mata Roma,Mata Roma,332832,Q2012544,,-43.12038942,-3.61904551,21,21014,2106409
br,ma,matinha,Matinha,Matinha,332797,Q1116758,,-45.03642894,-3.09840003,21,21005,2106508
br,ma,matoes,Matões,Matoes,332777,Q2012513,,-43.20120828,-5.522465019,21,21017,2106607
br,ma,matoes-do-norte,Matões do Norte,Matoes do Norte,332963,Q2013059,,-44.55024451,-3.62751878,21,21006,2106631
br,ma,milagres-do-maranhao,Milagres do Maranhão,Milagres do Maranhao,332975,Q2013332,,-42.61075283,-3.582206641,21,21014,2106672
br,ma,mirador,Mirador,Mirador,332913,Q2089741,,-44.36260979,-6.377565695,21,21018,2106706
br,ma,miranda-do-norte,Miranda do Norte,Miranda do Norte,332894,Q2066162,,-44.58427569,-3.562644774,21,21006,2106755
br,ma,mirinzal,Mirinzal,Mirinzal,332897,Q2066198,,-44.78575599,-2.064224192,21,21001,2106805
br,ma,moncao,Monção,Moncao,332831,Q2103583,,-45.24758467,-3.49393248,21,21005,2106904
br,ma,montes-altos,Montes Altos,Montes Altos,332854,Q2012463,,-47.07043951,-5.828562504,21,21009,2107001
br,ma,morros,Morros,Morros,332874,Q301700,,-44.04454454,-2.861478953,21,21003,2107100
br,ma,nina-rodrigues,Nina Rodrigues,Nina Rodrigues,332794,Q2020346,,-43.90448476,-3.462464289,21,21006,2107209
br,ma,nova-colinas,Nova Colinas,Nova Colinas,332822,Q2066151,,-46.25932522,-7.120566004,21,21021,2107258
br,ma,nova-iorque,Nova Iorque,Nova Iorque,332810,Q568168,,-44.04862673,-6.733203306,21,21018,2107308
br,ma,nova-olinda-do-maranhao,Nova Olinda do Maranhão,Nova Olinda do Maranhao,332947,Q924503,,-45.70453604,-2.799886544,21,21008,2107357
br,ma,olho-dagua-das-cunhas,Olho d'Água das Cunhãs,Olho d'Agua das Cunhas,332961,Q2066100,,-45.11957962,-4.13727593,21,21010,2107407
br,ma,olinda-nova-do-maranhao,Olinda Nova do Maranhão,Olinda Nova do Maranhao,332976,Q2065084,,-45.00323537,-2.997477615,21,21005,2107456
br,ma,paco-do-lumiar,Paço do Lumiar,Paco do Lumiar,332881,Q628172,,-44.09869235,-2.528063,21,21002,2107506
br,ma,palmeirandia,Palmeirândia,Palmeirandia,332909,Q2064709,,-44.90446389,-2.647774278,21,21005,2107605
br,ma,paraibano,Paraibano,Paraibano,332927,Q2261140,,-43.98576205,-6.431825414,21,21018,2107704
br,ma,parnarama,Parnarama,Parnarama,332933,Q2013043,,-43.09040135,-5.684467176,21,21017,2107803
br,ma,passagem-franca,Passagem Franca,Passagem Franca,332931,Q2043365,,-43.78174523,-6.173994426,21,21018,2107902
br,ma,pastos-bons,Pastos Bons,Pastos Bons,332840,Q2066090,,-44.08860251,-6.604027732,21,21018,2108009
br,ma,paulino-neves,Paulino Neves,Paulino Neves,332869,Q1876128,,-42.54542398,-2.71820599,21,21004,2108058
br,ma,paulo-ramos,Paulo Ramos,Paulo Ramos,332868,Q2064653,,-45.23998,-4.447956766,21,21008,2108108
br,ma,pedreiras,Pedreiras,Pedreiras,332787,Q1957216,,-44.60373488,-4.569350688,21,21010,2108207
br,ma,pedro-do-rosario,Pedro do Rosário,Pedro do Rosario,332944,Q661607,,-45.34645373,-2.968114673,21,21005,2108256
br,ma,penalva,Penalva,Penalva,332946,Q2066111,,-45.17646169,-3.293233318,21,21005,2108306
br,ma,peri-mirim,Peri Mirim,Peri Mirim,332964,Q2066022,,-44.8502907,-2.573054649,21,21005,2108405
br,ma,peritoro,Peritoró,Peritoro,332965,Q1941672,,-44.32585352,-4.370225118,21,21015,2108454
br,ma,pindare-mirim,Pindaré-Mirim,Pindare-Mirim,332896,Q2065093,,-45.34686792,-3.605500575,21,21008,2108504
br,ma,pinheiro,Pinheiro,Pinheiro,332882,Q1796449,,-45.0839266,-2.5227405,21,21005,2108603
br,ma,pio-xii,Pio XII,Pio XII,332921,Q1833985,,-45.16996039,-3.88758753,21,21010,2108702
br,ma,pirapemas,Pirapemas,Pirapemas,332928,Q2089300,,-44.22828088,-3.725329066,21,21006,2108801
br,ma,pocao-de-pedras,Poção de Pedras,Pocao de Pedras,332925,Q2104834,,-44.9515514,-4.750025211,21,21010,2108900
br,ma,porto-franco,Porto Franco,Porto Franco,332911,Q2082418,,-47.3821649,-6.354181864,21,21019,2109007
br,ma,porto-rico-do-maranhao,Porto Rico do Maranhão,Porto Rico do Maranhao,332884,Q2066074,,-44.58374789,-1.857223215,21,21001,2109056
br,ma,presidente-dutra,Presidente Dutra,Presidente Dutra,332970,Q637452,,-44.49291886,-5.282374258,21,21012,2109106
br,ma,presidente-juscelino,Presidente Juscelino,Presidente Juscelino,332954,Q2104269,,-44.07677942,-2.928229246,21,21003,2109205
br,ma,presidente-medici,Presidente Médici,Presidente Medici,332940,Q2089748,,-45.82070865,-2.383664047,21,21008,2109239
br,ma,presidente-sarney,Presidente Sarney,Presidente Sarney,332818,Q2013023,,-45.37130226,-2.59553056,21,21005,2109270
br,ma,presidente-vargas,Presidente Vargas,Presidente Vargas,332821,Q2003321,,-44.03340187,-3.402011522,21,21006,2109304
br,ma,primeira-cruz,Primeira Cruz,Primeira Cruz,332785,Q960537,,-43.4424433,-2.510583172,21,21004,2109403
br,ma,raposa,Raposa,Raposa,332859,Q2065202,,-44.10251616,-2.415074903,21,21002,2109452
br,ma,riachao,Riachão,Riachao,332833,Q685271,,-46.62335014,-7.364565,21,21020,2109502
br,ma,ribamar-fiquene,Ribamar Fiquene,Ribamar Fiquene,332908,Q2012967,,-47.38347779,-5.933822859,21,21009,2109551
br,ma,rosario,Rosário,Rosario,332918,Q2106358,,-44.2475186,-2.941543035,21,21003,2109601
br,ma,sambaiba,Sambaíba,Sambaiba,332879,Q2064949,,-45.3442032,-7.138350898,21,21021,2109700
br,ma,santa-filomena-do-maranhao,Santa Filomena do Maranhão,Santa Filomena do Maranhao,332902,Q2065314,,-44.56371404,-5.499766807,21,21011,2109759
br,ma,santa-helena,Santa Helena,Santa Helena,332960,Q2103762,,-45.30516119,-2.234532509,21,21005,2109809
br,ma,santa-ines,Santa Inês,Santa Ines,332808,Q2469099,,-45.37827245,-3.65857452,21,21008,2109908
br,ma,santa-luzia,Santa Luzia,Santa Luzia,332812,Q1977528,,-45.66501172,-3.968391465,21,21008,2110005
br,ma,santa-luzia-do-parua,Santa Luzia do Paruá,Santa Luzia do Parua,332814,Q2064642,,-45.77646156,-2.546161475,21,21008,2110039
br,ma,santa-quiteria-do-maranhao,Santa Quitéria do Maranhão,Santa Quiteria do Maranhao,332825,Q2013052,,-42.56287301,-3.498484995,21,21013,2110104
br,ma,santa-rita,Santa Rita,Santa Rita,332824,Q1915115,,-44.31994808,-3.134116766,21,21003,2110203
br,ma,santana-do-maranhao,Santana do Maranhão,Santana do Maranhao,332781,Q2012500,,-42.40076776,-3.113068343,21,21013,2110237
br,ma,santo-amaro-do-maranhao,Santo Amaro do Maranhão,Santo Amaro do Maranhao,332788,Q665255,,-43.25528494,-2.502721199,21,21004,2110278
br,ma,santo-antonio-dos-lopes,Santo Antônio dos Lopes,Santo Antonio dos Lopes,332775,Q2066051,,-44.36144743,-4.873819576,21,21010,2110302
br,ma,sao-benedito-do-rio-preto,São Benedito do Rio Preto,Sao Benedito do Rio Preto,332778,Q1806571,,-43.52999187,-3.332766004,21,21014,2110401
br,ma,sao-bento,São Bento,Sao Bento,332807,Q2104116,,-44.82834518,-2.6970075,21,21005,2110500
br,ma,sao-bernardo,São Bernardo,Sao Bernardo,332806,Q2065297,,-42.42300966,-3.36543651,21,21013,2110609
br,ma,sao-domingos-do-azeitao,São Domingos do Azeitão,Sao Domingos do Azeitao,332800,Q1977781,,-44.65042391,-6.80442501,21,21021,2110658
br,ma,sao-domingos-do-maranhao,São Domingos do Maranhão,Sao Domingos do Maranhao,332850,Q2036695,,-44.39287926,-5.565642,21,21012,2110708
br,ma,sao-felix-de-balsas,São Félix de Balsas,Sao Felix de Balsas,332855,Q2065066,,-44.81144766,-7.084685154,21,21021,2110807
br,ma,sao-francisco-do-brejao,São Francisco do Brejão,Sao Francisco do Brejao,332853,Q2012495,,-47.3911374,-5.130200787,21,21009,2110856
br,ma,sao-francisco-do-maranhao,São Francisco do Maranhão,Sao Francisco do Maranhao,332849,Q2065076,,-42.86532173,-6.252797917,21,21018,2110906
br,ma,sao-joao-batista,São João Batista,Sao Joao Batista,332870,Q1919029,,-44.81176185,-2.953332913,21,21005,2111003
br,ma,sao-joao-do-caru,São João do Carú,Sao Joao do Caru,332871,Q742676,,-46.25492548,-3.560803407,21,21008,2111029
br,ma,sao-joao-do-paraiso,São João do Paraíso,Sao Joao do Paraiso,332841,Q2105216,,-47.05061042,-6.466222286,21,21019,2111052
br,ma,sao-joao-do-soter,São João do Soter,Sao Joao do Soter,332844,Q1966884,,-43.8181818,-5.115739264,21,21017,2111078
br,ma,sao-joao-dos-patos,São João dos Patos,Sao Joao dos Patos,332892,Q2064621,,-43.70291017,-6.498208152,21,21018,2111102
br,ma,sao-jose-de-ribamar,São José de Ribamar,Sao Jose de Ribamar,332877,Q1006367,,-44.05754812,-2.55585852,21,21002,2111201
br,ma,sao-jose-dos-basilios,São José dos Basílios,Sao Jose dos Basilios,332930,Q1907710,,-44.58244652,-5.048687245,21,21012,2111250
br,ma,sao-luis,São Luís,Sao Luis,332923,Q28441,TRUE,-44.29791856,-2.531885985,21,21002,2111300
br,ma,sao-luis-gonzaga-do-maranhao,São Luís Gonzaga do Maranhão,Sao Luis Gonzaga do Maranhao,332934,Q2066188,,-44.6627085,-4.373918491,21,21010,2111409
br,ma,sao-mateus-do-maranhao,São Mateus do Maranhão,Sao Mateus do Maranhao,332937,Q2065276,,-44.46856281,-4.03455051,21,21010,2111508
br,ma,sao-pedro-da-agua-branca,São Pedro da Água Branca,Sao Pedro da Agua Branca,332938,Q2065266,,-48.42362359,-5.088910997,21,21009,2111532
br,ma,sao-pedro-dos-crentes,São Pedro dos Crentes,Sao Pedro dos Crentes,332948,Q693685,,-46.53258035,-6.828555641,21,21019,2111573
br,ma,sao-raimundo-das-mangabeiras,São Raimundo das Mangabeiras,Sao Raimundo das Mangabeiras,332950,Q2065231,,-45.48483143,-7.026962657,21,21021,2111607
br,ma,sao-raimundo-do-doca-bezerra,São Raimundo do Doca Bezerra,Sao Raimundo do Doca Bezerra,332982,Q1947813,,-45.08416279,-5.103181845,21,21010,2111631
br,ma,sao-roberto,São Roberto,Sao Roberto,332978,Q744797,,-44.99190116,-5.017366882,21,21010,2111672
br,ma,sao-vicente-ferrer,São Vicente Ferrer,Sao Vicente Ferrer,332977,Q2095193,,-44.88690458,-2.890731064,21,21005,2111706
br,ma,satubinha,Satubinha,Satubinha,332968,Q2064663,,-45.23362958,-4.035735495,21,21010,2111722
br,ma,senador-alexandre-costa,Senador Alexandre Costa,Senador Alexandre Costa,332967,Q1904786,,-44.05630151,-5.261076544,21,21012,2111748
br,ma,senador-la-rocque,Senador La Rocque,Senador La Rocque,332969,Q1967899,,-47.28919142,-5.441832495,21,21009,2111763
br,ma,serrano-do-maranhao,Serrano do Maranhão,Serrano do Maranhao,332801,Q1909011,,-45.11464085,-1.852645542,21,21001,2111789
br,ma,sitio-novo,Sítio Novo,Sitio Novo,332792,Q2099666,,-46.69498334,-5.870629891,21,21011,2111805
br,ma,sucupira-do-norte,Sucupira do Norte,Sucupira do Norte,332793,Q1873577,,-44.18860271,-6.478284448,21,21018,2111904
br,ma,sucupira-do-riachao,Sucupira do Riachão,Sucupira do Riachao,332795,Q2065244,,-43.54585332,-6.420108405,21,21018,2111953
br,ma,tasso-fragoso,Tasso Fragoso,Tasso Fragoso,332796,Q2307499,,-45.74412352,-8.479831018,21,21020,2112001
br,ma,timbiras,Timbiras,Timbiras,332784,Q1008188,,-43.93843397,-4.253840505,21,21015,2112100
br,ma,timon,Timon,Timon,332783,Q1017101,,-42.8337279,-5.10068111,21,21017,2112209
br,ma,trizidela-do-vale,Trizidela do Vale,Trizidela do Vale,332782,Q2065285,,-44.6106852,-4.570126857,21,21010,2112233
br,ma,tufilandia,Tufilândia,Tufilandia,332790,Q2066033,,-45.63391648,-3.676404118,21,21008,2112274
br,ma,tuntum,Tuntum,Tuntum,332789,Q1957192,,-44.64901215,-5.24965554,21,21011,2112308
br,ma,turiacu,Turiaçu,Turiacu,332901,Q634717,,-45.36915242,-1.669022048,21,21007,2112407
br,ma,turilandia,Turilândia,Turilandia,332898,Q2064492,,-45.30676531,-2.228833525,21,21007,2112456
br,ma,tutoia,Tutóia,Tutoia,332905,Q2012483,,-42.27684721,-2.763550197,21,21004,2112506
br,ma,urbano-santos,Urbano Santos,Urbano Santos,332904,Q2064632,,-43.40424847,-3.2084095,21,21014,2112605
br,ma,vargem-grande,Vargem Grande,Vargem Grande,332903,Q1019640,,-43.91666449,-3.541896,21,21006,2112704
br,ma,viana,Viana,Viana,332906,Q2106072,,-45.0013067,-3.214562513,21,21005,2112803
br,ma,vila-nova-dos-martirios,Vila Nova dos Martírios,Vila Nova dos Martirios,332917,Q2065169,,-48.13892648,-5.183511519,21,21009,2112852
br,ma,vitoria-do-mearim,Vitória do Mearim,Vitoria do Mearim,332914,Q2065110,,-44.86957224,-3.482047365,21,21005,2112902
br,ma,vitorino-freire,Vitorino Freire,Vitorino Freire,332915,Q1120902,,-45.24418514,-4.2911865,21,21008,2113009
br,ma,ze-doca,Zé Doca,Ze Doca,332926,Q1806488,,-45.65769786,-3.2754805,21,21008,2114007
br,pi,acaua,Acauã,Acaua,302709,Q2066143,,-41.08363782,-8.220786663,22,22015,2200053
br,pi,agricolandia,Agricolândia,Agricolandia,302845,Q1936312,,-42.6591832,-5.795501935,22,22005,2200103
br,pi,agua-branca,Água Branca,Agua Branca,302769,Q578114,,-42.63513086,-5.893266338,22,22005,2200202
br,pi,alagoinha-do-piaui,Alagoinha do Piauí,Alagoinha do Piaui,302669,Q2064226,,-40.93463482,-7.00817528,22,22014,2200251
br,pi,alegrete-do-piaui,Alegrete do Piauí,Alegrete do Piaui,302852,Q633346,,-40.85786299,-7.245349466,22,22014,2200277
br,pi,alto-longa,Alto Longá,Alto Longa,302804,Q636564,,-42.21032196,-5.250993011,22,22004,2200301
br,pi,altos,Altos,Altos,302774,Q22060469,,-42.46094804,-5.036546434,22,22003,2200400
br,pi,alvorada-do-gurgueia,Alvorada do Gurguéia,Alvorada do Gurgueia,302725,Q1940535,,-43.86307158,-8.443959072,22,22010,2200459
br,pi,amarante,Amarante,Amarante,302826,Q22059801,,-42.85369282,-6.246610772,22,22005,2200509
br,pi,angical-do-piaui,Angical do Piauí,Angical do Piaui,302863,Q1892127,,-42.74386575,-6.087241692,22,22005,2200608
br,pi,anisio-de-abreu,Anísio de Abreu,Anisio de Abreu,302719,Q1938748,,-43.03485333,-9.174918531,22,22011,2200707
br,pi,antonio-almeida,Antônio Almeida,Antonio Almeida,302758,Q2064181,,-44.19653532,-7.219355834,22,22008,2200806
br,pi,aroazes,Aroazes,Aroazes,302815,Q1940548,,-41.79745334,-6.112850256,22,22006,2200905
br,pi,aroeiras-do-itaim,Aroeiras do Itaim,Aroeiras do Itaim,302678,Q2095297,,-41.56320442,-7.278745465,22,22013,2200954
br,pi,arraial,Arraial,Arraial,302658,Q2064170,,-42.53656662,-6.650827028,22,22005,2201002
br,pi,assuncao-do-piaui,Assunção do Piauí,Assuncao do Piaui,302685,Q2078771,,-41.05083,-5.864914495,22,22004,2201051
br,pi,avelino-lopes,Avelino Lopes,Avelino Lopes,302667,Q1809642,,-43.94151014,-10.13474501,22,22012,2201101
br,pi,baixa-grande-do-ribeiro,Baixa Grande do Ribeiro,Baixa Grande do Ribeiro,302841,Q2049334,,-45.21281529,-7.853351959,22,22007,2201150
br,pi,barra-dalcantara,Barra d'Alcântara,Barra d'Alcantara,302668,Q1938757,,-42.10500208,-6.518873072,22,22006,2201176
br,pi,barras,Barras,Barras,302767,Q808836,,-42.29533986,-4.243093354,22,22001,2201200
br,pi,barreiras-do-piaui,Barreiras do Piauí,Barreiras do Piaui,302724,Q618000,,-45.47778771,-9.921246827,22,22010,2201309
br,pi,barro-duro,Barro Duro,Barro Duro,302756,Q2064159,,-42.51337782,-5.812359708,22,22005,2201408
br,pi,batalha,Batalha,Batalha,302711,Q2012017,,-42.07521873,-4.020412336,22,22001,2201507
br,pi,bela-vista-do-piaui,Bela Vista do Piauí,Bela Vista do Piaui,302742,Q378812,,-41.87137964,-7.97218532,22,22015,2201556
br,pi,belem-do-piaui,Belém do Piauí,Belem do Piaui,302828,Q1811039,,-40.97030219,-7.370139616,22,22015,2201572
br,pi,beneditinos,Beneditinos,Beneditinos,302808,Q1981008,,-42.3706167,-5.44760286,22,22003,2201606
br,pi,bertolinia,Bertolínia,Bertolinia,302849,Q769524,,-43.95438774,-7.628624763,22,22008,2201705
br,pi,betania-do-piaui,Betânia do Piauí,Betania do Piaui,302778,Q2064331,,-40.79662193,-8.145665577,22,22015,2201739
br,pi,boa-hora,Boa Hora,Boa Hora,302715,Q1838960,,-42.12529574,-4.409009606,22,22001,2201770
br,pi,bocaina,Bocaina,Bocaina,302831,Q2097681,,-41.32234068,-6.954842333,22,22013,2201804
br,pi,bom-jesus,Bom Jesus,Bom Jesus,302689,Q891715,,-44.36052508,-9.070948984,22,22010,2201903
br,pi,bom-principio-do-piaui,Bom Princípio do Piauí,Bom Principio do Piaui,302729,Q2063977,,-41.64520957,-3.189858688,22,22002,2201919
br,pi,bonfim-do-piaui,Bonfim do Piauí,Bonfim do Piaui,302716,Q2089257,,-42.87966307,-9.166560539,22,22011,2201929
br,pi,boqueirao-do-piaui,Boqueirão do Piauí,Boqueirao do Piaui,302833,Q2078789,,-42.10362713,-4.485819632,22,22004,2201945
br,pi,brasileira,Brasileira,Brasileira,302643,Q2329749,,-41.78925964,-4.137829108,22,22001,2201960
br,pi,brejo-do-piaui,Brejo do Piauí,Brejo do Piaui,302737,Q2089172,,-42.83030181,-8.207064766,22,22011,2201988
br,pi,buriti-dos-lopes,Buriti dos Lopes,Buriti dos Lopes,302861,Q2064004,,-41.86990885,-3.172721335,22,22002,2202000
br,pi,buriti-dos-montes,Buriti dos Montes,Buriti dos Montes,302865,Q1999799,,-41.10185139,-5.312066783,22,22004,2202026
br,pi,cabeceiras-do-piaui,Cabeceiras do Piauí,Cabeceiras do Piaui,302721,Q1938976,,-42.30831607,-4.471331294,22,22001,2202059
br,pi,cajazeiras-do-piaui,Cajazeiras do Piauí,Cajazeiras do Piaui,302703,Q2064526,,-42.39672729,-6.794184118,22,22013,2202075
br,pi,cajueiro-da-praia,Cajueiro da Praia,Cajueiro da Praia,302712,Q2064154,,-41.34715036,-2.929227172,22,22002,2202083
br,pi,caldeirao-grande-do-piaui,Caldeirão Grande do Piauí,Caldeirao Grande do Piaui,302843,Q2064592,,-40.63741891,-7.331559652,22,22015,2202091
br,pi,campinas-do-piaui,Campinas do Piauí,Campinas do Piaui,302765,Q1938871,,-41.88074529,-7.654778128,22,22015,2202109
br,pi,campo-alegre-do-fidalgo,Campo Alegre do Fidalgo,Campo Alegre do Fidalgo,302847,Q2064600,,-41.83201332,-8.374480381,22,22015,2202117
br,pi,campo-grande-do-piaui,Campo Grande do Piauí,Campo Grande do Piaui,302810,Q2064482,,-41.03120096,-7.13599312,22,22015,2202133
br,pi,campo-largo-do-piaui,Campo Largo do Piauí,Campo Largo do Piaui,302674,Q1938765,,-42.62604104,-3.807868939,22,22001,2202174
br,pi,campo-maior,Campo Maior,Campo Maior,302832,Q2105005,,-42.1667446,-4.829113927,22,22004,2202208
br,pi,canavieira,Canavieira,Canavieira,302665,Q2078429,,-43.71942803,-7.69462156,22,22009,2202251
br,pi,canto-do-buriti,Canto do Buriti,Canto do Buriti,302822,Q2079682,,-42.94402102,-8.10823192,22,22011,2202307
br,pi,capitao-de-campos,Capitão de Campos,Capitao de Campos,302710,Q2089202,,-41.94352197,-4.458559268,22,22004,2202406
br,pi,capitao-gervasio-oliveira,Capitão Gervásio Oliveira,Capitao Gervasio Oliveira,302806,Q636789,,-41.81611631,-8.496837868,22,22015,2202455
br,pi,caracol,Caracol,Caracol,302745,Q2104975,,-43.33420045,-9.276765267,22,22011,2202505
br,pi,caraubas-do-piaui,Caraúbas do Piauí,Caraubas do Piaui,302840,Q2064040,,-41.84120813,-3.478590538,22,22002,2202539
br,pi,caridade-do-piaui,Caridade do Piauí,Caridade do Piaui,302736,Q2064398,,-40.99033455,-7.728652388,22,22015,2202554
br,pi,castelo-do-piaui,Castelo do Piauí,Castelo do Piaui,302700,Q2078710,,-41.54731624,-5.321543871,22,22004,2202604
br,pi,caxingo,Caxingó,Caxingo,302855,Q1938789,,-41.88268376,-3.426938403,22,22002,2202653
br,pi,cocal,Cocal,Cocal,302723,Q511764,,-41.55684483,-3.47045349,22,22002,2202703
br,pi,cocal-de-telha,Cocal de Telha,Cocal de Telha,302802,Q2078362,,-41.97904787,-4.553815724,22,22004,2202711
br,pi,cocal-dos-alves,Cocal dos Alves,Cocal dos Alves,302732,Q1940520,,-41.45541891,-3.606072591,22,22002,2202729
br,pi,coivaras,Coivaras,Coivaras,302784,Q2077715,,-42.20731591,-5.091308351,22,22003,2202737
br,pi,colonia-do-gurgueia,Colônia do Gurguéia,Colonia do Gurgueia,302814,Q2064280,,-43.79601716,-8.187574216,22,22008,2202752
br,pi,colonia-do-piaui,Colônia do Piauí,Colonia do Piaui,302781,Q2066010,,-42.17711851,-7.223657564,22,22013,2202778
br,pi,conceicao-do-caninde,Conceição do Canindé,Conceicao do Caninde,302763,Q256489,,-41.59663394,-7.882704154,22,22015,2202802
br,pi,coronel-jose-dias,Coronel José Dias,Coronel Jose Dias,302740,Q2078647,,-42.4703571,-8.816369412,22,22011,2202851
br,pi,corrente,Corrente,Corrente,302800,Q2662106,,-45.16331252,-10.44093604,22,22012,2202901
br,pi,cristalandia-do-piaui,Cristalândia do Piauí,Cristalandia do Piaui,302642,Q1122557,,-45.1860307,-10.64780375,22,22012,2203008
br,pi,cristino-castro,Cristino Castro,Cristino Castro,302761,Q1940564,,-44.22441475,-8.820186289,22,22010,2203107
br,pi,curimata,Curimatá,Curimata,302708,Q655584,,-44.30072223,-10.03129243,22,22012,2203206
br,pi,currais,Currais,Currais,302783,Q2065020,,-44.40300215,-9.012433839,22,22010,2203230
br,pi,curralinhos,Curralinhos,Curralinhos,302788,Q1871203,,-42.83221052,-5.620453229,22,22003,2203255
br,pi,curral-novo-do-piaui,Curral Novo do Piauí,Curral Novo do Piaui,302857,Q1936263,,-40.90106947,-7.830797188,22,22015,2203271
br,pi,demerval-lobao,Demerval Lobão,Demerval Lobao,302834,Q1851653,,-42.67422861,-5.358465466,22,22003,2203305
br,pi,dirceu-arcoverde,Dirceu Arcoverde,Dirceu Arcoverde,302652,Q2079658,,-42.43956996,-9.335200044,22,22011,2203354
br,pi,dom-expedito-lopes,Dom Expedito Lopes,Dom Expedito Lopes,302679,Q2064417,,-41.65238521,-6.957901843,22,22013,2203404
br,pi,domingos-mourao,Domingos Mourão,Domingos Mourao,302651,Q1937344,,-41.27188145,-4.253433635,22,22004,2203420
br,pi,dom-inocencio,Dom Inocêncio,Dom Inocencio,302803,Q2089195,,-41.97685112,-9.008074943,22,22011,2203453
br,pi,elesbao-veloso,Elesbão Veloso,Elesbao Veloso,302693,Q2078352,,-42.13814445,-6.201719461,22,22006,2203503
br,pi,eliseu-martins,Eliseu Martins,Eliseu Martins,302738,Q2064194,,-43.66481113,-8.09646229,22,22008,2203602
br,pi,esperantina,Esperantina,Esperantina,302851,Q2009973,,-42.23536453,-3.895604531,22,22001,2203701
br,pi,fartura-do-piaui,Fartura do Piauí,Fartura do Piaui,302813,Q1936286,,-42.7944014,-9.478606286,22,22011,2203750
br,pi,flores-do-piaui,Flores do Piauí,Flores do Piaui,302744,Q1937384,,-42.9243058,-7.791775602,22,22009,2203800
br,pi,floresta-do-piaui,Floresta do Piauí,Floresta do Piaui,302683,Q1935819,,-41.80031429,-7.466795375,22,22015,2203859
br,pi,floriano,Floriano,Floriano,302684,Q2008644,,-43.02064474,-6.769672434,22,22009,2203909
br,pi,francinopolis,Francinópolis,Francinopolis,302846,Q2077745,,-42.2633661,-6.395292623,22,22006,2204006
br,pi,francisco-ayres,Francisco Ayres,Francisco Ayres,302690,Q1938945,,-42.69112784,-6.623343532,22,22005,2204105
br,pi,francisco-macedo,Francisco Macedo,Francisco Macedo,302773,Q2064534,,-40.79556735,-7.327871041,22,22015,2204154
br,pi,francisco-santos,Francisco Santos,Francisco Santos,302757,Q2078798,,-41.13615734,-6.994171138,22,22014,2204204
br,pi,fronteiras,Fronteiras,Fronteiras,302823,Q2064409,,-40.61723293,-7.088412533,22,22015,2204303
br,pi,geminiano,Geminiano,Geminiano,302730,Q1852620,,-41.35757976,-7.158417626,22,22013,2204352
br,pi,gilbues,Gilbués,Gilbues,302656,Q677076,,-45.34691998,-9.834569906,22,22010,2204402
br,pi,guadalupe,Guadalupe,Guadalupe,302853,Q2104157,,-43.56692365,-6.785246909,22,22009,2204501
br,pi,guaribas,Guaribas,Guaribas,302645,Q1969397,,-43.68772103,-9.395111304,22,22011,2204550
br,pi,hugo-napoleao,Hugo Napoleão,Hugo Napoleao,302817,Q1938815,,-42.56256305,-5.987787891,22,22005,2204600
br,pi,ilha-grande,Ilha Grande,Ilha Grande,302864,Q2078225,,-41.81977318,-2.854008607,22,22002,2204659
br,pi,inhuma,Inhuma,Inhuma,302671,Q2104143,,-41.71019406,-6.667120341,22,22006,2204709
br,pi,ipiranga-do-piaui,Ipiranga do Piauí,Ipiranga do Piaui,302688,Q2042128,,-41.73991413,-6.826932678,22,22013,2204808
br,pi,isaias-coelho,Isaías Coelho,Isaias Coelho,302649,Q1935791,,-41.67944808,-7.734310697,22,22015,2204907
br,pi,itainopolis,Itainópolis,Itainopolis,302796,Q662237,,-41.48002531,-7.451280813,22,22015,2205003
br,pi,itaueira,Itaueira,Itaueira,302735,Q2079025,,-43.02549651,-7.608116633,22,22009,2205102
br,pi,jacobina-do-piaui,Jacobina do Piauí,Jacobina do Piaui,302672,Q2064385,,-41.21076205,-7.936264488,22,22015,2205151
br,pi,jaicos,Jaicós,Jaicos,302779,Q953959,,-41.14647481,-7.353152327,22,22015,2205201
br,pi,jardim-do-mulato,Jardim do Mulato,Jardim do Mulato,302805,Q1991909,,-42.63395956,-6.096577595,22,22005,2205250
br,pi,jatoba-do-piaui,Jatobá do Piauí,Jatoba do Piaui,302747,Q2079666,,-41.81982222,-4.773158944,22,22004,2205276
br,pi,jerumenha,Jerumenha,Jerumenha,302743,Q2089161,,-43.50274301,-7.084632194,22,22009,2205300
br,pi,joao-costa,João Costa,Joao Costa,302666,Q762804,,-42.41784858,-8.489125722,22,22015,2205359
br,pi,joaquim-pires,Joaquim Pires,Joaquim Pires,302670,Q961001,,-42.1876898,-3.513103548,22,22001,2205409
br,pi,joca-marques,Joca Marques,Joca Marques,302663,Q2078313,,-42.42773708,-3.488033826,22,22001,2205458
br,pi,jose-de-freitas,José de Freitas,Jose de Freitas,302662,Q2078167,,-42.57837453,-4.76305064,22,22003,2205508
br,pi,juazeiro-do-piaui,Juazeiro do Piauí,Juazeiro do Piaui,302751,Q2078842,,-41.70260076,-5.161372754,22,22004,2205516
br,pi,julio-borges,Júlio Borges,Julio Borges,302644,Q369466,,-44.24370063,-10.32678681,22,22012,2205524
br,pi,jurema,Jurema,Jurema,302854,Q1941164,,-43.13310974,-9.222024721,22,22011,2205532
br,pi,lagoinha-do-piaui,Lagoinha do Piauí,Lagoinha do Piaui,302801,Q2064145,,-42.62738373,-5.836583441,22,22005,2205540
br,pi,lagoa-alegre,Lagoa Alegre,Lagoa Alegre,302653,Q2077708,,-42.61674254,-4.508729749,22,22003,2205557
br,pi,lagoa-do-barro-do-piaui,Lagoa do Barro do Piauí,Lagoa do Barro do Piaui,302654,Q2064717,,-41.53027541,-8.482437115,22,22015,2205565
br,pi,lagoa-de-sao-francisco,Lagoa de São Francisco,Lagoa de Sao Francisco,302759,Q1114540,,-41.60546869,-4.392746387,22,22004,2205573
br,pi,lagoa-do-piaui,Lagoa do Piauí,Lagoa do Piaui,302792,Q1938883,,-42.64901321,-5.41214417,22,22003,2205581
br,pi,lagoa-do-sitio,Lagoa do Sítio,Lagoa do Sitio,302733,Q1853146,,-41.5823863,-6.51534763,22,22006,2205599
br,pi,landri-sales,Landri Sales,Landri Sales,302782,Q1938802,,-43.93104552,-7.266599975,22,22008,2205607
br,pi,luis-correia,Luís Correia,Luis Correia,302726,Q2064046,,-41.66456723,-2.881566536,22,22002,2205706
br,pi,luzilandia,Luzilândia,Luzilandia,302746,Q1924294,,-42.37163752,-3.460817635,22,22001,2205805
br,pi,madeiro,Madeiro,Madeiro,302858,Q2064030,,-42.50514125,-3.484212005,22,22001,2205854
br,pi,manoel-emidio,Manoel Emídio,Manoel Emidio,302768,Q2064262,,-43.87547467,-8.011358674,22,22008,2205904
br,pi,marcolandia,Marcolândia,Marcolandia,302713,Q1878529,,-40.66285429,-7.443556661,22,22015,2205953
br,pi,marcos-parente,Marcos Parente,Marcos Parente,302704,Q1938857,,-43.88831401,-7.119295378,22,22008,2206001
br,pi,massape-do-piaui,Massapê do Piauí,Massape do Piaui,302697,Q1940480,,-41.12385468,-7.465482685,22,22015,2206050
br,pi,matias-olimpio,Matias Olímpio,Matias Olimpio,302655,Q1894372,,-42.5586289,-3.711027283,22,22001,2206100
br,pi,miguel-alves,Miguel Alves,Miguel Alves,302827,Q677160,,-42.89316665,-4.168215582,22,22001,2206209
br,pi,miguel-leao,Miguel Leão,Miguel Leao,302793,Q2078472,,-42.73582953,-5.68224178,22,22003,2206308
br,pi,milton-brandao,Milton Brandão,Milton Brandao,302825,Q1938844,,-41.44795954,-4.699953478,22,22004,2206357
br,pi,monsenhor-gil,Monsenhor Gil,Monsenhor Gil,302860,Q1935712,,-42.61739892,-5.551485631,22,22003,2206407
br,pi,monsenhor-hipolito,Monsenhor Hipólito,Monsenhor Hipolito,302816,Q2060311,,-41.0328934,-7.003502473,22,22014,2206506
br,pi,monte-alegre-do-piaui,Monte Alegre do Piauí,Monte Alegre do Piaui,302659,Q1938896,,-45.29574022,-9.755833668,22,22010,2206605
br,pi,morro-cabeca-no-tempo,Morro Cabeça no Tempo,Morro Cabeca no Tempo,302835,Q2098784,,-43.90187437,-9.719319492,22,22012,2206654
br,pi,morro-do-chapeu-do-piaui,Morro do Chapéu do Piauí,Morro do Chapeu do Piaui,302797,Q2064135,,-42.3090634,-3.742255096,22,22001,2206670
br,pi,murici-dos-portelas,Murici dos Portelas,Murici dos Portelas,302839,Q2078394,,-42.09676908,-3.323859785,22,22002,2206696
br,pi,nazare-do-piaui,Nazaré do Piauí,Nazare do Piaui,302809,Q939833,,-42.66822723,-6.967128491,22,22009,2206704
br,pi,nazaria,Nazária,Nazaria,2706907,Q10335889,,-42.81404847,-5.346925,22,22003,2206720
br,pi,nossa-senhora-de-nazare,Nossa Senhora de Nazaré,Nossa Senhora de Nazare,302680,Q963907,,-42.17930308,-4.626932092,22,22004,2206753
br,pi,nossa-senhora-dos-remedios,Nossa Senhora dos Remédios,Nossa Senhora dos Remedios,302657,Q2104808,,-42.62395105,-3.991225352,22,22001,2206803
br,pi,novo-oriente-do-piaui,Novo Oriente do Piauí,Novo Oriente do Piaui,302720,Q2077697,,-41.92872231,-6.449405137,22,22006,2206902
br,pi,novo-santo-antonio,Novo Santo Antônio,Novo Santo Antonio,302862,Q2169201,,-41.9345075,-5.286057644,22,22004,2206951
br,pi,oeiras,Oeiras,Oeiras,302701,Q2077764,,-42.13140566,-7.016418006,22,22013,2207009
br,pi,olho-dagua-do-casado,Olho d'Água do Piauí,Olho d'Agua do Piaui,302842,Q1940465,,-42.57855161,-5.847158573,22,22005,2207108
br,pi,padre-marcos,Padre Marcos,Padre Marcos,302739,Q2066171,,-40.90586208,-7.354712116,22,22015,2207207
br,pi,paes-landim,Paes Landim,Paes Landim,302820,Q2078986,,-42.25695763,-7.775562915,22,22015,2207306
br,pi,pajeu-do-piaui,Pajeú do Piauí,Pajeu do Piaui,302776,Q519387,,-42.81693609,-7.852520092,22,22011,2207355
br,pi,palmeira-do-piaui,Palmeira do Piauí,Palmeira do Piaui,302675,Q1936298,,-44.23256858,-8.729501119,22,22010,2207405
br,pi,palmeirais,Palmeirais,Palmeirais,302811,Q2064013,,-43.06184352,-5.979796836,22,22005,2207504
br,pi,paqueta,Paquetá,Paqueta,302727,Q2065325,,-41.70138525,-7.101466244,22,22013,2207553
br,pi,parnagua,Parnaguá,Parnagua,302821,Q2089339,,-44.63431461,-10.21718097,22,22012,2207603
br,pi,parnaiba,Parnaíba,Parnaiba,302702,Q1643864,,-41.77817059,-2.903360145,22,22002,2207702
br,pi,passagem-franca-do-piaui,Passagem Franca do Piauí,Passagem Franca do Piaui,302734,Q1937308,,-42.44052675,-5.85624732,22,22005,2207751
br,pi,patos-do-piaui,Patos do Piauí,Patos do Piaui,302764,Q1940449,,-41.2522814,-7.680763935,22,22015,2207777
br,pi,pau-darco-do-piaui,Pau d'Arco do Piauí,Pau d'Arco do Piaui,302794,Q1933647,,-42.3888655,-5.251093429,22,22003,2207793
br,pi,paulistana,Paulistana,Paulistana,302692,Q2064687,,-41.14709649,-8.141436135,22,22015,2207801
br,pi,pavussu,Pavussu,Pavussu,302660,Q2089236,,-43.2217523,-7.964286955,22,22009,2207850
br,pi,pedro-ii,Pedro II,Pedro II,302824,Q1934329,,-41.45855993,-4.427055265,22,22004,2207900
br,pi,pedro-laurentino,Pedro Laurentino,Pedro Laurentino,302707,Q1938919,,-42.28607367,-8.066882594,22,22015,2207934
br,pi,nova-santa-rita,Nova Santa Rita,Nova Santa Rita,302789,Q2103222,,-42.048262,-8.074964718,22,22015,2207959
br,pi,picos,Picos,Picos,302661,Q1810825,,-41.46882671,-7.081373912,22,22013,2208007
br,pi,pimenteiras,Pimenteiras,Pimenteiras,302687,Q2077685,,-41.41515861,-6.24168841,22,22006,2208106
br,pi,pio-ix,Pio IX,Pio IX,302705,Q2089220,,-40.61827279,-6.832687301,22,22014,2208205
br,pi,piracuruca,Piracuruca,Piracuruca,302775,Q2063996,,-41.70904155,-3.929287494,22,22002,2208304
br,pi,piripiri,Piripiri,Piripiri,302698,Q996763,,-41.77850485,-4.276068693,22,22001,2208403
br,pi,porto,Porto,Porto,302731,Q2113232,,-42.710926,-3.891422995,22,22001,2208502
br,pi,porto-alegre-do-piaui,Porto Alegre do Piauí,Porto Alegre do Piaui,302714,Q1935805,,-44.1948371,-6.971724687,22,22008,2208551
br,pi,prata-do-piaui,Prata do Piauí,Prata do Piaui,302772,Q2042707,,-42.20422368,-5.664797694,22,22006,2208601
br,pi,queimada-nova,Queimada Nova,Queimada Nova,302681,Q1938832,,-41.41702492,-8.585425347,22,22015,2208650
br,pi,redencao-do-gurgueia,Redenção do Gurguéia,Redencao do Gurgueia,302699,Q1848362,,-44.58121416,-9.493448241,22,22010,2208700
br,pi,regeneracao,Regeneração,Regeneracao,302838,Q1879913,,-42.68502423,-6.240183021,22,22005,2208809
br,pi,riacho-frio,Riacho Frio,Riacho Frio,302646,Q1936273,,-44.95253005,-10.12872769,22,22012,2208858
br,pi,ribeira-do-piaui,Ribeira do Piauí,Ribeira do Piaui,302836,Q521452,,-42.71404349,-7.690575501,22,22015,2208874
br,pi,ribeiro-goncalves,Ribeiro Gonçalves,Ribeiro Goncalves,302777,Q2064254,,-45.24563868,-7.558034245,22,22007,2208908
br,pi,rio-grande-do-piaui,Rio Grande do Piauí,Rio Grande do Piaui,302722,Q629855,,-43.14018279,-7.77085712,22,22009,2209005
br,pi,santa-cruz-do-piaui,Santa Cruz do Piauí,Santa Cruz do Piaui,302829,Q1937333,,-41.76192569,-7.177626496,22,22013,2209104
br,pi,santa-cruz-dos-milagres,Santa Cruz dos Milagres,Santa Cruz dos Milagres,302673,Q2077726,,-41.95844595,-5.808120998,22,22006,2209153
br,pi,santa-filomena,Santa Filomena,Santa Filomena,302866,Q2340263,,-45.92055644,-9.106795705,22,22007,2209203
br,pi,santa-luz,Santa Luz,Santa Luz,302753,Q1938964,,-44.12958591,-8.944624217,22,22010,2209302
br,pi,santana-do-piaui,Santana do Piauí,Santana do Piaui,302648,Q1938905,,-41.51848056,-6.949071764,22,22013,2209351
br,pi,santa-rosa-do-piaui,Santa Rosa do Piauí,Santa Rosa do Piaui,302798,Q2065835,,-42.28081388,-6.801455058,22,22013,2209377
br,pi,santo-antonio-de-lisboa,Santo Antônio de Lisboa,Santo Antonio de Lisboa,302760,Q659267,,-41.23376474,-6.981848477,22,22014,2209401
br,pi,santo-antonio-dos-milagres,Santo Antônio dos Milagres,Santo Antonio dos Milagres,302682,Q1984524,,-42.71119681,-6.046717596,22,22005,2209450
br,pi,santo-inacio-do-piaui,Santo Inácio do Piauí,Santo Inacio do Piaui,302677,Q952549,,-41.91821286,-7.422336837,22,22015,2209500
br,pi,sao-braz-do-piaui,São Braz do Piauí,Sao Braz do Piaui,302785,Q2078851,,-42.99907252,-9.062560536,22,22011,2209559
br,pi,sao-felix-do-piaui,São Félix do Piauí,Sao Felix do Piaui,302766,Q2078371,,-42.11350259,-5.932867663,22,22006,2209609
br,pi,sao-francisco-de-assis-do-piaui,São Francisco de Assis do Piauí,Sao Francisco de Assis do Piaui,302718,Q979443,,-41.68959715,-8.23775475,22,22015,2209658
br,pi,sao-francisco-do-piaui,São Francisco do Piauí,Sao Francisco do Piaui,302850,Q1899910,,-42.53853199,-7.243976104,22,22009,2209708
br,pi,sao-goncalo-do-gurgueia,São Gonçalo do Gurguéia,Sao Goncalo do Gurgueia,302770,Q1940505,,-45.30140551,-10.02994011,22,22010,2209757
br,pi,sao-goncalo-do-piaui,São Gonçalo do Piauí,Sao Goncalo do Piaui,302787,Q2005540,,-42.69883098,-5.98966744,22,22005,2209807
br,pi,sao-joao-da-canabrava,São João da Canabrava,Sao Joao da Canabrava,302695,Q2064374,,-41.34605365,-6.81893099,22,22013,2209856
br,pi,sao-joao-da-fronteira,São João da Fronteira,Sao Joao da Fronteira,302754,Q2064127,,-41.25628696,-3.938597434,22,22002,2209872
br,pi,sao-joao-da-serra,São João da Serra,Sao Joao da Serra,302859,Q2099643,,-41.89926375,-5.508797538,22,22004,2209906
br,pi,sao-joao-da-varjota,São João da Varjota,Sao Joao da Varjota,302706,Q1938932,,-41.8637422,-6.919017839,22,22013,2209955
br,pi,sao-joao-do-arraial,São João do Arraial,Sao Joao do Arraial,302844,Q2064021,,-42.45312617,-3.813168874,22,22001,2209971
br,pi,sao-joao-do-piaui,São João do Piauí,Sao Joao do Piaui,302686,Q1937319,,-42.25643753,-8.348849688,22,22015,2210003
br,pi,sao-jose-do-divino,São José do Divino,Sao Jose do Divino,302691,Q2105469,,-41.83010877,-3.805716357,22,22002,2210052
br,pi,sao-jose-do-peixe,São José do Peixe,Sao Jose do Peixe,302750,Q769359,,-42.57017942,-7.493008781,22,22009,2210102
br,pi,sao-jose-do-piaui,São José do Piauí,Sao Jose do Piaui,302676,Q2066044,,-41.47940723,-6.870626245,22,22013,2210201
br,pi,sao-juliao,São Julião,Sao Juliao,302790,Q1987363,,-40.83691324,-7.085315005,22,22014,2210300
br,pi,sao-lourenco-do-piaui,São Lourenço do Piauí,Sao Lourenco do Piaui,302812,Q518321,,-42.54435199,-9.172001877,22,22011,2210359
br,pi,sao-luis-do-piaui,São Luis do Piauí,Sao Luis do Piaui,302830,Q1935674,,-41.32283782,-6.82814383,22,22013,2210375
br,pi,sao-miguel-da-baixa-grande,São Miguel da Baixa Grande,Sao Miguel da Baixa Grande,302717,Q1935660,,-42.18537737,-5.862298634,22,22006,2210383
br,pi,sao-miguel-do-fidalgo,São Miguel do Fidalgo,Sao Miguel do Fidalgo,302807,Q2079673,,-42.37052904,-7.584969119,22,22009,2210391
br,pi,sao-miguel-do-tapuio,São Miguel do Tapuio,Sao Miguel do Tapuio,302741,Q2078456,,-41.31979849,-5.500663699,22,22004,2210409
br,pi,sao-pedro-do-piaui,São Pedro do Piauí,Sao Pedro do Piaui,302795,Q2077678,,-42.72366017,-5.913951647,22,22005,2210508
br,pi,sao-raimundo-nonato,São Raimundo Nonato,Sao Raimundo Nonato,302786,Q1935702,,-42.69228516,-9.015360482,22,22011,2210607
br,pi,sebastiao-barros,Sebastião Barros,Sebastiao Barros,302650,Q1977122,,-44.83328418,-10.81667522,22,22012,2210623
br,pi,sebastiao-leal,Sebastião Leal,Sebastiao Leal,302848,Q2078343,,-44.06769177,-7.57738563,22,22008,2210631
br,pi,sigefredo-pacheco,Sigefredo Pacheco,Sigefredo Pacheco,302694,Q2095087,,-41.72755922,-4.911689164,22,22004,2210656
br,pi,simoes,Simões,Simoes,302791,Q2089169,,-40.81750907,-7.599137166,22,22015,2210706
br,pi,simplicio-mendes,Simplício Mendes,Simplicio Mendes,302837,Q1943081,,-41.91091036,-7.857957294,22,22015,2210805
br,pi,socorro-do-piaui,Socorro do Piauí,Socorro do Piaui,302762,Q2065179,,-42.50469172,-7.864938057,22,22015,2210904
br,pi,sussuapara,Sussuapara,Sussuapara,302728,Q2066083,,-41.39226773,-7.017010589,22,22013,2210938
br,pi,tamboril-do-piaui,Tamboril do Piauí,Tamboril do Piaui,302748,Q1935687,,-42.90968883,-8.40043178,22,22011,2210953
br,pi,tanque-do-piaui,Tanque do Piauí,Tanque do Piaui,302856,Q2065348,,-42.28390134,-6.596353467,22,22013,2210979
br,pi,teresina,Teresina,Teresina,302749,Q165341,TRUE,-42.80527046,-5.086341952,22,22003,2211001
br,pi,uniao,União,Uniao,302664,Q2101441,,-42.86292972,-4.586018159,22,22003,2211100
br,pi,urucui,Uruçuí,Urucui,302647,Q22059606,,-44.56025592,-7.229503345,22,22007,2211209
br,pi,valenca-do-piaui,Valença do Piauí,Valenca do Piaui,302696,Q22059605,,-41.74053599,-6.398196023,22,22006,2211308
br,pi,varzea-branca,Várzea Branca,Varzea Branca,302780,Q2078860,,-42.96944454,-9.236541089,22,22011,2211357
br,pi,varzea-grande,Várzea Grande,Varzea Grande,302755,Q22059603,,-42.25310162,-6.542947554,22,22006,2211407
br,pi,vera-mendes,Vera Mendes,Vera Mendes,302799,Q2064975,,-41.47973675,-7.602849283,22,22015,2211506
br,pi,vila-nova-do-piaui,Vila Nova do Piauí,Vila Nova do Piaui,302752,Q1979610,,-40.9378014,-7.141046434,22,22015,2211605
br,pi,wall-ferraz,Wall Ferraz,Wall Ferraz,302771,Q1935648,,-41.90895362,-7.235779006,22,22013,2211704
br,ce,abaiara,Abaiara,Abaiara,302599,Q1796441,,-39.04754664,-7.356976596,23,23033,2300101
br,ce,acarape,Acarape,Acarape,302505,Q1808379,,-38.70562377,-4.223138409,23,23013,2300150
br,ce,acarau,Acaraú,Acarau,302500,Q1796706,,-40.11824147,-2.88531054,23,23001,2300200
br,ce,acopiara,Acopiara,Acopiara,302627,Q544694,,-39.45570528,-6.092761995,23,23021,2300309
br,ce,aiuaba,Aiuaba,Aiuaba,302486,Q641440,,-40.12316008,-6.56329844,23,23020,2300408
br,ce,alcantaras,Alcântaras,Alcantaras,302576,Q2027670,,-40.54463812,-3.586983769,23,23004,2300507
br,ce,altaneira,Altaneira,Altaneira,302606,Q2021103,,-39.74582064,-6.997498351,23,23030,2300606
br,ce,alto-santo,Alto Santo,Alto Santo,302609,Q2021254,,-38.27277815,-5.52208174,23,23023,2300705
br,ce,amontada,Amontada,Amontada,302613,Q947378,,-39.82882279,-3.364877804,23,23008,2300754
br,ce,antonina-do-norte,Antonina do Norte,Antonina do Norte,302573,Q2021007,,-39.98238684,-6.779687847,23,23027,2300804
br,ce,apuiares,Apuiarés,Apuiares,302494,Q2028851,,-39.43042278,-3.948018519,23,23011,2300903
br,ce,aquiraz,Aquiraz,Aquiraz,302563,Q1794121,,-38.38980296,-3.9061945,23,23016,2301000
br,ce,aracati,Aracati,Aracati,302612,Q1754397,,-37.7727526,-4.56706647,23,23022,2301109
br,ce,aracoiaba,Aracoiaba,Aracoiaba,302495,Q2289917,,-38.80944097,-4.370393807,23,23013,2301208
br,ce,ararenda,Ararendá,Ararenda,302454,Q2020998,,-40.83109674,-4.751938272,23,23018,2301257
br,ce,araripe,Araripe,Araripe,302601,Q2021237,,-40.13744581,-7.206183789,23,23029,2301307
br,ce,aratuba,Aratuba,Aratuba,302592,Q2013968,,-39.04755456,-4.416930645,23,23013,2301406
br,ce,arneiroz,Arneiroz,Arneiroz,302482,Q952686,,-40.16144371,-6.319425803,23,23020,2301505
br,ce,assare,Assaré,Assare,302520,Q1808367,,-39.87127475,-6.872607112,23,23029,2301604
br,ce,aurora,Aurora,Aurora,302483,Q2289941,,-38.97699088,-6.940391832,23,23031,2301703
br,ce,baixio,Baixio,Baixio,302594,Q1808481,,-38.72012592,-6.727162049,23,23028,2301802
br,ce,banabuiu,Banabuiú,Banabuiu,302484,Q1945041,,-38.9257848,-5.315047304,23,23019,2301851
br,ce,barbalha,Barbalha,Barbalha,302456,Q602143,,-39.30231637,-7.307172127,23,23032,2301901
br,ce,barreira,Barreira,Barreira,302497,Q2013899,,-38.63850183,-4.288762267,23,23014,2301950
br,ce,barro,Barro,Barro,302464,Q2028645,,-38.77988065,-7.168208727,23,23031,2302008
br,ce,barroquinha,Barroquinha,Barroquinha,302469,Q2020987,,-41.13948154,-3.009116746,23,23001,2302057
br,ce,baturite,Baturité,Baturite,302605,Q2021082,,-38.88002138,-4.331205156,23,23013,2302107
br,ce,beberibe,Beberibe,Beberibe,302521,Q2028035,,-38.12327304,-4.174763221,23,23015,2302206
